pop,date_in,date_max,name,name_normalized,id_ine_inspire,geonamesid,context_0,context_1,context_2,context_3,country,gaz_id_explicit,latitude,longitude,code,dsg,level,inside,address,geonames_name,gazetteer,total_score,date,wikidata_id
8784,1537-02-12,1916-07-19,Lisboa,Lisboa,PT.GN.104409,2267057,Lisboa,,,,Portugal,,38.71667,-9.13333,PRT.12.7.53_1,Socorro,3.0,PRT.12.7_1,"Lisboa, Socorro, Lisboa, Lisboa",Lisboa,geonames-pt,20.0,2024-11-10 14:52:29.214201,Q597
5526,1537-00-00,1915-10-12,Coimbra,Coimbra,PT.GN.98266,2740637,Coimbra,,,,Portugal,,40.20564,-8.41955,PRT.7.3.15_1,Coimbra (Sé Nova),3.0,PRT.7.3_1,"Coimbra, Coimbra (Sé Nova), Coimbra, Coimbra",Coimbra,geonames-pt,20.0,2024-11-10 14:52:29.237934,Q3348861
3391,1537-05-30,1917-10-22,Porto,Porto,,2735943,Porto,,,,Portugal,,41.14961,-8.61099,PRT.15.12.12_1,Santo Ildefonso,3.0,PRT.15.12_1,"Porto, Santo Ildefonso, Porto, Porto",Porto,geonames-pt,20.0,2024-11-10 14:52:29.238834,Q33707919
1608,1540-01-21,1914-07-24,Braga,Braga,PT.GN.89788,2742032,Braga,,,,Portugal,,41.55032,-8.42005,PRT.4.3.8_1,Braga (São José de São Lázaro),3.0,PRT.4.3_1,"Braga, Braga (São José de São Lázaro), Braga, Braga",Braga,geonames-pt,20.0,2024-11-10 14:52:29.239736,Q3344946
1072,1537-11-22,1910-10-10,Évora,Évora,,2268406,Évora,,,,Portugal,,38.56667,-7.9,PRT.8.5.18_1,Senhora da Saúde,3.0,PRT.8.5_1,"Évora, Senhora da Saúde, Évora, Évora",Évora,geonames-pt,20.0,2024-11-10 14:52:29.240641,Q3349362
986,1537-00-00,1912-07-03,Viseu,Viseu,,2732265,Viseu,,,,Portugal,,40.66101,-7.90971,PRT.20.23.34_1,Viseu (São José),3.0,PRT.20.23_1,"Viseu, Viseu (São José), Viseu, Viseu",Viseu,geonames-pt,20.0,2024-11-10 14:52:29.241547,Q49278409
980,1537-12-18,1912-07-18,Guimarães,Guimarães,,2738752,Guimarães,,,,Portugal,,41.44443,-8.29619,PRT.4.8.34_1,Guimarães (São Paio),3.0,PRT.4.8_1,"Guimarães, Guimarães (São Paio), Guimarães, Braga",Guimarães,geonames-pt,15.0,2024-11-10 14:52:30.361623,Q49283743
972,1537-00-00,1909-10-05,Lamego,Lamego,,2738459,Lamego,,,,Portugal,,41.09741,-7.80991,PRT.20.5.10_1,Lamego (Almacave),3.0,PRT.20.5_1,"Lamego, Lamego (Almacave), Lamego, Viseu",Lamego,geonames-pt,15.0,2024-11-10 14:52:30.362559,Q49285330
790,1538-04-21,1913-10-13,Aveiro,Aveiro,,2742611,Aveiro,,,,Portugal,,40.64427,-8.64554,PRT.1.5.14_1,Vera Cruz,3.0,PRT.1.5_1,"Aveiro, Vera Cruz, Aveiro, Aveiro",Aveiro,geonames-pt,20.0,2024-11-10 14:52:29.242455,Q485581
765,1537-03-07,1909-11-09,Vila Real,Vila Real,,2732438,Vila Real,,,,Portugal,,41.30062,-7.74413,PRT.19.14.29_1,Vila Real (São Pedro),3.0,PRT.19.14_1,"Vila Real, Vila Real (São Pedro), Vila Real, Vila Real",Vila Real,geonames-pt,20.0,2024-11-10 14:52:29.243403,Q49278400
728,1537-01-29,1909-10-04,Santarém,Santarém,,2263480,Santarém,,,,Portugal,,39.23333,-8.68333,PRT.16.17.20_1,Santarém (Marvila),3.0,PRT.16.17_1,"Santarém, Santarém (Marvila), Santarém, Santarém",Santarém,geonames-pt,20.0,2024-11-10 14:52:29.244308,Q863744
668,1537-00-00,1910-10-15,Leiria,Leiria,,2267095,Leiria,,,,Portugal,,39.74362,-8.80705,PRT.11.9.16_1,Leiria,3.0,PRT.11.9_1,"Leiria, Leiria, Leiria, Leiria",Leiria,geonames-pt,25.0,2024-11-10 14:52:29.155218,Q3348464
569,1537-01-16,1890-10-16,Ilha da Madeira,"Funchal (Sé), Funchal (Sé), Funchal, Madeira",,8014027,Funchal (Sé),Funchal (Sé),Funchal,Madeira,Portugal,,32.64685,-16.9123,PRT.13.3.4_1,Funchal (Sé),3.0,PRT.13.3_1,"Funchal (Sé), Funchal (Sé), Funchal, Madeira",Funchal (Sé),geonames-pt,35.0,2024-11-10 14:52:29.064405,Q2190091
542,1538-10-18,1912-10-12,Portalegre,Portalegre,,2264508,Portalegre,,,,Portugal,,39.29379,-7.43122,PRT.14.14.8_1,São Lourenço,3.0,PRT.14.14_1,"Portalegre, São Lourenço, Portalegre, Portalegre",Portalegre,geonames-pt,20.0,2024-11-10 14:52:29.245298,Q49278076
538,1537-12-18,1910-10-13,Castelo Branco,Castelo Branco,,2269514,Castelo Branco,,,,Portugal,,39.82219,-7.49087,PRT.6.2.5_1,Castelo Branco,3.0,PRT.6.2_1,"Castelo Branco, Castelo Branco, Castelo Branco, Castelo Branco",Castelo Branco,geonames-pt,25.0,2024-11-10 14:52:29.156119,Q12899232
531,1537-01-18,1912-06-17,Tomar,Tomar,,2262644,Tomar,,,,Portugal,,39.60199,-8.40924,PRT.16.19.13_1,Santa Maria dos Olivais,3.0,PRT.16.19_1,"Tomar, Santa Maria dos Olivais, Tomar, Santarém",Tomar,geonames-pt,15.0,2024-11-10 14:52:30.363711,Q622817
527,1538-00-00,1912-06-26,Barcelos,Barcelos,,2742416,Barcelos,,,,Portugal,,41.53174,-8.61843,PRT.4.2.16_1,Barcelos,3.0,PRT.4.2_1,"Barcelos, Barcelos, Barcelos, Braga",Barcelos,geonames-pt,20.0,2024-11-10 14:52:29.262504,Q31910871
500,1537-12-18,1909-10-14,Beja,Beja,,2270985,Beja,,,,Portugal,,38.01506,-7.86323,PRT.3.5.4_1,Beja (Santa Maria da Feira),3.0,PRT.3.5_1,"Beja, Beja (Santa Maria da Feira), Beja, Beja",Beja,geonames-pt,20.0,2024-11-10 14:52:29.246318,Q3344424
495,1593-10-01,1892-10-28,"Baía, Brasil","Salvador, Brasil",,3450554,Salvador,,,,Brasil,,-12.97111,-38.51083,2927408,Salvador,3.0,BRA.5_1,"Salvador, Salvador, Bahia, Brasil",Salvador,geonames-br,15.0,2024-11-10 14:52:30.337979,Q32148682
494,1555-10-00,1844-10-19,Viana,Viana do Castelo,,2732773,Viana do Castelo,,,,Portugal,,41.69323,-8.83287,PRT.18.9.34_1,Viana do Castelo (Monserrate),3.0,PRT.18.9_1,"Viana do Castelo, Viana do Castelo (Monserrate), Viana do Castelo, Viana do Castelo",Viana do Castelo,geonames-pt,20.0,2024-11-10 14:52:29.247286,Q49278394
475,1538-10-11,1913-10-13,Guarda,Guarda,,2738785,Guarda,,,,Portugal,,40.53733,-7.26575,PRT.10.7.23_1,Guarda (Sé),3.0,PRT.10.7_1,"Guarda, Guarda (Sé), Guarda, Guarda",Guarda,geonames-pt,20.0,2024-11-10 14:52:29.251324,Q750594
448,1537-12-28,1909-10-09,Elvas,Elvas,,2268615,Elvas,,,,Portugal,,38.8815,-7.16282,PRT.14.7.2_1,Alcáçova,3.0,PRT.14.7_1,"Elvas, Alcáçova, Elvas, Portalegre",Elvas,geonames-pt,15.0,2024-11-10 14:52:30.364700,Q49282865
430,1538-11-22,1910-10-15,Abrantes,Abrantes,,2272447,Abrantes,,,,Portugal,,39.46667,-8.2,PRT.16.1.2_1,Abrantes (São Vicente),3.0,PRT.16.1_1,"Abrantes, Abrantes (São Vicente), Abrantes, Santarém",Abrantes,geonames-pt,15.0,2024-11-10 14:52:30.365792,Q331191
426,1540-00-00,1910-10-11,Montemor-o-Velho,Montemor-o-Velho,,2737437,Montemor-o-Velho,,,,Portugal,,40.17287,-8.68616,PRT.7.10.8_1,Montemor-o-Velho,3.0,PRT.7.10_1,"Montemor-o-Velho, Montemor-o-Velho, Montemor-o-Velho, Coimbra",Montemor-o-Velho,geonames-pt,20.0,2024-11-10 14:52:29.263598,Q45815
425,1537-12-18,1905-10-03,Setúbal,Setúbal,,2262963,Setúbal,,,,Portugal,,38.5244,-8.8882,PRT.17.12.6_1,Setúbal (Santa Maria da Graça),3.0,PRT.17.12_1,"Setúbal, Setúbal (Santa Maria da Graça), Setúbal, Setúbal",Setúbal,geonames-pt,20.0,2024-11-10 14:52:29.252252,*notfound*
415,1608-10-08,1908-10-03,"Rio de Janeiro, Brasil","Rio de Janeiro, Brasil",,3451190,Rio de Janeiro,,,,Brasil,,-22.90642,-43.18223,3304557,Rio de Janeiro,3.0,BRA.19_1,"Rio de Janeiro, Rio de Janeiro, Rio de Janeiro, Brasil",Rio de Janeiro,geonames-br,20.0,2024-11-10 14:52:29.217853,*notfound*
397,1537-04-29,1912-11-06,Ponte de Lima,Ponte de Lima,,2736041,Ponte de Lima,,,,Portugal,,41.76719,-8.58393,PRT.18.7.35_1,Ponte de Lima,3.0,PRT.18.7_1,"Ponte de Lima, Ponte de Lima, Ponte de Lima, Viana do Castelo",Ponte de Lima,geonames-pt,20.0,2024-11-10 14:52:29.264524,Q49288127
393,1538-10-16,1912-08-01,Covilhã,Covilhã,,8010474,Covilhã,,,,Portugal,,40.29227,-7.50366,PRT.6.3.6_1,Cantar-Galo,3.0,PRT.6.3_1,"Covilhã, Cantar-Galo, Covilhã, Castelo Branco",Covilhã,geonames-pt,15.0,2024-11-10 14:52:30.481178,Q849026
391,1570-10-01,1893-10-21,Baía,"Salvador, Brasil",,3450554,Salvador,,,,Brasil,,-12.97111,-38.51083,2927408,Salvador,3.0,BRA.5_1,"Salvador, Salvador, Bahia, Brasil",Salvador,geonames-br,15.0,2024-11-10 14:52:30.338911,Q32148682
376,1538-05-26,1912-07-29,Bragança,Bragança,,2742027,Bragança,,,,Portugal,,41.80582,-6.75719,PRT.5.2.6_1,Bragança (Sé),3.0,PRT.5.2_1,"Bragança, Bragança (Sé), Bragança, Bragança",Bragança,geonames-pt,20.0,2024-11-10 14:52:29.253178,Q768261
360,1537-00-00,1913-07-16,Torres Novas,Torres Novas,,2262582,Torres Novas,,,,Portugal,,39.47581,-8.54348,PRT.16.20.14_1,Torres Novas (Santa Maria),3.0,PRT.16.20_1,"Torres Novas, Torres Novas (Santa Maria), Torres Novas, Santarém",Torres Novas,geonames-pt,15.0,2024-11-10 14:52:30.366736,Q49291719
359,1549-00-00,1913-07-19,Soure,Soure,,2733851,Soure,,,,Portugal,,40.05989,-8.62605,PRT.7.15.9_1,Soure,3.0,PRT.7.15_1,"Soure, Soure, Soure, Coimbra",Soure,geonames-pt,20.0,2024-11-10 14:52:29.266355,Q543993
343,1549-00-00,1912-07-25,Faro,Faro,,2268339,Faro,,,,Portugal,,37.01869,-7.92716,PRT.9.5.4_1,Faro (Sé),3.0,PRT.9.5_1,"Faro, Faro (Sé), Faro, Faro",Faro,geonames-pt,20.0,2024-11-10 14:52:29.254107,Q159457
330,1537-09-22,1911-08-15,Amarante,Amarante,,2742965,Amarante,,,,Portugal,,41.27271,-8.08245,PRT.15.1.3_1,Amarante (São Gonçalo),3.0,PRT.15.1_1,"Amarante, Amarante (São Gonçalo), Amarante, Porto",Amarante,geonames-pt,15.0,2024-11-10 14:52:30.367677,Q31880915
312,1538-07-11,1909-11-18,Chaves,Chaves,,2740761,Chaves,,,,Portugal,,41.74019,-7.46879,PRT.19.3.31_1,Santa Maria Maior,3.0,PRT.19.3_1,"Chaves, Santa Maria Maior, Chaves, Vila Real",Chaves,geonames-pt,15.0,2024-11-10 14:52:30.368607,Q49281908
305,1552-10-00,1912-06-24,Águeda,Águeda,,2743292,Águeda,,,,Portugal,,40.5772,-8.44442,PRT.1.1.4_1,Águeda,3.0,PRT.1.1_1,"Águeda, Águeda, Águeda, Aveiro",Águeda,geonames-pt,20.0,2024-11-10 14:52:29.267255,Q249906
296,1558-10-01,1910-10-24,Rio de Janeiro,"Rio de Janeiro, Brasil",,3451190,Rio de Janeiro,,,,Brasil,,-22.90642,-43.18223,3304557,Rio de Janeiro,3.0,BRA.19_1,"Rio de Janeiro, Rio de Janeiro, Rio de Janeiro, Brasil",Rio de Janeiro,geonames-br,20.0,2024-11-10 14:52:29.218758,*notfound*
296,1537-12-18,1912-07-12,Vila do Conde,Vila do Conde,,2732649,Vila do Conde,,,,Portugal,,41.35326,-8.74516,PRT.15.17.28_1,Vila do Conde,3.0,PRT.15.17_1,"Vila do Conde, Vila do Conde, Vila do Conde, Porto",Vila do Conde,geonames-pt,20.0,2024-11-10 14:52:29.268158,Q917313
294,1537-02-19,1899-10-12,Castelo de Vide,Castelo de Vide,,6930628,Castelo de Vide,,,,Portugal,,39.43336,-7.51465,PRT.14.5.3_1,Santiago Maior,3.0,PRT.14.5_1,"Castelo de Vide, Santiago Maior, Castelo de Vide, Portalegre",Castelo de Vide,geonames-pt,15.0,2024-11-10 14:52:30.483131,Q1000037
288,1551-02-12,1913-07-12,Estremoz,Estremoz,,2268411,Estremoz,,,,Portugal,,38.84432,-7.58585,PRT.8.4.3_1,Estremoz (Santo André),3.0,PRT.8.4_1,"Estremoz, Estremoz (Santo André), Estremoz, Évora",Estremoz,geonames-pt,15.0,2024-11-10 14:52:30.369543,Q49282912
288,1537-12-18,1908-10-02,Vila Viçosa,Vila Viçosa,,2261577,Vila Viçosa,,,,Portugal,,38.7777,-7.41793,PRT.8.14.5_1,Vila Viçosa (São Bartolomeu),3.0,PRT.8.14_1,"Vila Viçosa, Vila Viçosa (São Bartolomeu), Vila Viçosa, Évora",Vila Viçosa,geonames-pt,15.0,2024-11-10 14:52:30.370470,Q49292319
276,1551-12-11,1908-10-13,Lousã,Lousã,,8011840,Lousã,,,,Portugal,,40.10344,-8.24503,PRT.7.7.4_1,Lousã,3.0,PRT.7.7_1,"Lousã, Lousã, Lousã, Coimbra",Lousã,geonames-pt,20.0,2024-11-10 14:52:29.526794,Q2451169
269,1540-01-16,1907-12-10,Trancoso,Trancoso,,2733439,Trancoso,,,,Portugal,,40.78329,-7.35016,PRT.10.13.23_1,Trancoso (Santa Maria),3.0,PRT.10.13_1,"Trancoso, Trancoso (Santa Maria), Trancoso, Guarda",Trancoso,geonames-pt,15.0,2024-11-10 14:52:30.371408,*notfound*
265,1540-01-13,1909-10-15,Tentúgal,Tentúgal,,8011859,Tentúgal,,,,Portugal,,40.23683,-8.59381,PRT.7.10.12_1,Tentúgal,3.0,PRT.7.10_1,"Tentúgal, Tentúgal, Montemor-o-Velho, Coimbra",Tentúgal,geonames-pt,15.0,2024-11-10 14:52:30.522124,Q2119651
248,1581-11-07,1905-10-07,Arcos de Valdevez,Arcos de Valdevez,,8010627,Arcos de Valdevez,,,,Portugal,,41.87348,-8.42624,PRT.18.1.17_1,Gondoriz,3.0,PRT.18.1_1,"Arcos de Valdevez, Gondoriz, Arcos de Valdevez, Viana do Castelo",Arcos de Valdevez,geonames-pt,15.0,2024-11-10 14:52:30.485019,Q490302
248,1538-11-22,1903-10-03,Moura,Moura,,2265686,Moura,,,,Portugal,,38.1401,-7.44856,PRT.3.10.2_1,Moura (Santo Agostinho),3.0,PRT.3.10_1,"Moura, Moura (Santo Agostinho), Moura, Beja",Moura,geonames-pt,15.0,2024-11-10 14:52:30.372337,Q551662
243,1537-02-21,1878-10-15,Ourém,Ourém,,2265388,Ourém,,,,Portugal,,39.64167,-8.5919,PRT.16.14.13_1,Nossa Senhora das Misericórdias,3.0,PRT.16.14_1,"Ourém, Nossa Senhora das Misericórdias, Ourém, Santarém",Ourém,geonames-pt,15.0,2024-11-10 14:52:30.373264,Q49287774
241,1561-11-01,1909-10-02,Sertã,Sertã,,2262987,Sertã,,,,Portugal,,39.80205,-8.09589,PRT.6.9.12_1,Sertã,3.0,PRT.6.9_1,"Sertã, Sertã, Sertã, Castelo Branco",Sertã,geonames-pt,20.0,2024-11-10 14:52:29.269080,Q193402
240,1538-01-11,1913-08-09,Pombal,Pombal,,2264575,Pombal,,,,Portugal,,39.91674,-8.62847,PRT.11.15.12_1,Pombal,3.0,PRT.11.15_1,"Pombal, Pombal, Pombal, Leiria",Pombal,geonames-pt,20.0,2024-11-10 14:52:29.269978,Q49288119
236,1538-10-01,1912-06-19,Serpa,Serpa,,2263049,Serpa,,,,Portugal,,37.94581,-7.59754,PRT.3.13.5_1,Serpa (Santa Maria),3.0,PRT.3.13_1,"Serpa, Serpa (Santa Maria), Serpa, Beja",Serpa,geonames-pt,15.0,2024-11-10 14:52:30.375128,Q49289417
235,1537-00-00,1910-10-11,Montemor-o-Novo,Montemor-o-Novo,,2265888,Montemor-o-Novo,,,,Portugal,,38.64812,-8.21455,PRT.8.6.7_1,Nossa Senhora do Bispo,3.0,PRT.8.6_1,"Montemor-o-Novo, Nossa Senhora do Bispo, Montemor-o-Novo, Évora",Montemor-o-Novo,geonames-pt,15.0,2024-11-10 14:52:30.376069,Q49286908
229,1538-00-00,1910-10-10,Pinhel,Pinhel,,2736183,Pinhel,,,,Portugal,,40.77403,-7.06675,PRT.10.10.17_1,Pinhel,3.0,PRT.10.10_1,"Pinhel, Pinhel, Pinhel, Guarda",Pinhel,geonames-pt,20.0,2024-11-10 14:52:29.270970,*notfound*
226,1551-10-00,1842-10-05,Basto,Basto,,8011092,Basto,,,,Portugal,,41.47827,-7.9875,PRT.4.4.4_1,Basto,3.0,PRT.4.4_1,"Basto, Basto, Cabeceiras de Basto, Braga",Basto,geonames-pt,15.0,2024-11-10 14:52:30.523064,Q810664
226,1540-07-06,1909-10-12,Cantanhede,Cantanhede,,2741547,Cantanhede,,,,Portugal,,40.34671,-8.59419,PRT.7.2.5_1,Cantanhede,3.0,PRT.7.2_1,"Cantanhede, Cantanhede, Cantanhede, Coimbra",Cantanhede,geonames-pt,20.0,2024-11-10 14:52:29.272131,Q49281726
221,1537-00-00,1909-10-12,Penela,Penela,,2736429,Penela,,,,Portugal,,40.03333,-8.38333,PRT.7.14.4_1,Penela (São Miguel),3.0,PRT.7.14_1,"Penela, Penela (São Miguel), Penela, Coimbra",Penela,geonames-pt,15.0,2024-11-10 14:52:30.377007,Q576924
212,1537-12-18,1909-10-26,Viana do Castelo,Viana do Castelo,,2732773,Viana do Castelo,,,,Portugal,,41.69323,-8.83287,PRT.18.9.34_1,Viana do Castelo (Monserrate),3.0,PRT.18.9_1,"Viana do Castelo, Viana do Castelo (Monserrate), Viana do Castelo, Viana do Castelo",Viana do Castelo,geonames-pt,20.0,2024-11-10 14:52:29.248440,Q49278394
209,1538-00-00,1913-10-20,Tavira,Tavira,,2262744,Tavira,,,,Portugal,,37.12734,-7.64861,PRT.9.14.8_1,Tavira (Santa Maria),3.0,PRT.9.14_1,"Tavira, Tavira (Santa Maria), Tavira, Faro",Tavira,geonames-pt,15.0,2024-11-10 14:52:30.377936,Q372840
207,1540-01-31,1908-10-08,Gouveia,Gouveia,,2738888,Gouveia,,,,Portugal,,40.50829,-7.5905,PRT.10.6.8_1,Gouveia (São Pedro),3.0,PRT.10.6_1,"Gouveia, Gouveia (São Pedro), Gouveia, Guarda",Gouveia,geonames-pt,15.0,2024-11-10 14:52:30.486962,Q599317
206,1576-03-10,1908-10-15,Espinhal,Espinhal,,8011883,Espinhal,,,,Portugal,,39.99874,-8.31611,PRT.7.14.2_1,Espinhal,3.0,PRT.7.14_1,"Espinhal, Espinhal, Penela, Coimbra",Espinhal,geonames-pt,15.0,2024-11-10 14:52:30.524010,Q33806630
203,1588-11-21,1912-07-08,Ovar,Ovar,,8010833,Ovar,,,,Portugal,,40.84542,-8.64966,PRT.1.14.5_1,Ovar,3.0,PRT.1.14_1,"Ovar, Ovar, Ovar, Aveiro",Ovar,geonames-pt,20.0,2024-11-10 14:52:29.527689,Q2258976
203,1540-10-13,1876-10-15,Torre de Moncorvo,Torre de Moncorvo,,2733488,Torre de Moncorvo,,,,Portugal,,41.17454,-7.05364,PRT.5.9.16_1,Torre de Moncorvo,3.0,PRT.5.9_1,"Torre de Moncorvo, Torre de Moncorvo, Torre de Moncorvo, Bragança",Torre de Moncorvo,geonames-pt,20.0,2024-11-10 14:52:29.273273,*notfound*
202,1540-10-20,1770-10-01,Arrifana de Sousa,Penafiel,,2736469,Penafiel,,,,Portugal,,41.20835,-8.28285,PRT.15.11.24_1,Penafiel,3.0,PRT.15.11_1,"Penafiel, Penafiel, Penafiel, Porto",Penafiel,geonames-pt,20.0,2024-11-10 14:52:29.276160,Q49287885
201,1538-04-19,1895-10-28,Torres Vedras,Torres Vedras,,2262581,Torres Vedras,,,,Portugal,,39.09109,-9.2586,PRT.12.15.18_1,Torres Vedras (São Pedro e São T,3.0,PRT.12.15_1,"Torres Vedras, Torres Vedras (São Pedro e São T, Torres Vedras, Lisboa",Torres Vedras,geonames-pt,15.0,2024-11-10 14:52:30.378880,Q49291720
197,1540-07-07,1909-10-05,São Pedro do Sul,São Pedro do Sul,,8014854,São Pedro do Sul,,,,Portugal,,40.76131,-8.05308,PRT.20.16.14_1,São Pedro do Sul,3.0,PRT.20.16_1,"São Pedro do Sul, São Pedro do Sul, São Pedro do Sul, Viseu",São Pedro do Sul,geonames-pt,20.0,2024-11-10 14:52:29.528654,Q2450382
193,1538-05-07,1906-10-01,Alcobaça,Alcobaça,,2272147,Alcobaça,,,,Portugal,,39.55223,-8.97749,PRT.11.1.1_1,Alcobaça,3.0,PRT.11.1_1,"Alcobaça, Alcobaça, Alcobaça, Leiria",Alcobaça,geonames-pt,20.0,2024-11-10 14:52:29.279981,Q3344440
187,1538-00-00,1888-12-03,Ilha de São Miguel,Ponta Delgada,INE-A26-02719,6941014,Ponta Delgada,,,,Portugal,,37.73952,-25.66874,PRT.2.10.15_1,Ponta Delgada (São Sebastião),3.0,PRT.2.10_1,"Ponta Delgada, Ponta Delgada (São Sebastião), Ponta Delgada, Azores",Ponta Delgada,geonames-pt,15.0,2024-11-10 14:52:30.345421,Q49278070
184,1549-01-01,1907-10-01,Sardoal,Sardoal,,8010610,Sardoal,,,,Portugal,,39.55643,-8.14323,PRT.16.18.3_1,Sardoal,3.0,PRT.16.18_1,"Sardoal, Sardoal, Sardoal, Santarém",Sardoal,geonames-pt,20.0,2024-11-10 14:52:29.507521,Q635165
182,1537-10-01,1903-10-07,Óbidos,Óbidos,,2265485,Óbidos,,,,Portugal,,39.36055,-9.1567,PRT.11.12.5_1,Óbidos (São Pedro),3.0,PRT.11.12_1,"Óbidos, Óbidos (São Pedro), Óbidos, Leiria",Óbidos,geonames-pt,15.0,2024-11-10 14:52:30.381076,Q49294872
174,1540-10-11,1906-10-02,Monção,Monção,,8013257,Monção,,,,Portugal,,42.07035,-8.48268,PRT.18.4.18_1,Monção,3.0,PRT.18.4_1,"Monção, Monção, Monção, Viana do Castelo",Monção,geonames-pt,20.0,2024-11-10 14:52:29.531633,Q425738
170,1577-02-01,1910-10-13,Campo Maior,Campo Maior,,2270336,Campo Maior,,,,Portugal,,39.01774,-7.06497,PRT.14.4.3_1,São João Baptista,3.0,PRT.14.4_1,"Campo Maior, São João Baptista, Campo Maior, Portalegre",Campo Maior,geonames-pt,15.0,2024-11-10 14:52:30.382085,Q49281716
166,1586-11-04,1913-07-23,Ansião,Ansião,,2271650,Ansião,,,,Portugal,,39.91177,-8.43568,PRT.11.3.2_1,Ansião,3.0,PRT.11.3_1,"Ansião, Ansião, Ansião, Leiria",Ansião,geonames-pt,20.0,2024-11-10 14:52:29.280900,*notfound*
162,1603-10-20,1908-10-06,Miranda do Corvo,Miranda do Corvo,,2737641,Miranda do Corvo,,,,Portugal,,40.09318,-8.33261,PRT.7.9.2_1,Miranda do Corvo,3.0,PRT.7.9_1,"Miranda do Corvo, Miranda do Corvo, Miranda do Corvo, Coimbra",Miranda do Corvo,geonames-pt,20.0,2024-11-10 14:52:29.282747,Q370187
162,1537-04-23,1906-10-15,Nisa,Nisa,,2265525,Nisa,,,,Portugal,,39.51499,-7.64908,PRT.14.12.4_1,Espírito Santo,3.0,PRT.14.12_1,"Nisa, Espírito Santo, Nisa, Portalegre",Nisa,geonames-pt,15.0,2024-11-10 14:52:30.383083,*notfound*
161,1537-12-18,1905-10-07,Pereira,Pereira,,8011005,Pereira,,,,Portugal,,41.48851,-8.63248,PRT.4.2.65_1,Pereira,3.0,PRT.4.2_1,"Pereira, Pereira, Barcelos, Braga",Pereira,geonames-pt,15.0,2024-11-10 14:52:30.524953,Q1238547
160,1537-00-00,1909-10-18,Buarcos,Buarcos,,8011823,Buarcos,,,,Portugal,,40.17808,-8.87996,PRT.7.5.6_1,Buarcos,3.0,PRT.7.5_1,"Buarcos, Buarcos, Figueira da Foz, Coimbra",Buarcos,geonames-pt,15.0,2024-11-10 14:52:30.525895,Q997360
160,1568-11-18,1911-06-26,Fundão,Fundão,,2739187,Fundão,,,,Portugal,,40.14025,-7.50135,PRT.6.4.18_1,Fundão,3.0,PRT.6.4_1,"Fundão, Fundão, Fundão, Castelo Branco",Fundão,geonames-pt,20.0,2024-11-10 14:52:29.283662,Q49283095
159,1540-01-31,1908-10-02,Arganil,Arganil,,2742757,Arganil,,,,Portugal,,40.21826,-8.05403,PRT.7.1.2_1,Arganil,3.0,PRT.7.1_1,"Arganil, Arganil, Arganil, Coimbra",Arganil,geonames-pt,20.0,2024-11-10 14:52:29.284569,Q31887734
159,1549-10-01,1909-10-02,Góis,Góis,,2738974,Góis,,,,Portugal,,40.15735,-8.11007,PRT.7.6.4_1,Góis,3.0,PRT.7.6_1,"Góis, Góis, Góis, Coimbra",Góis,geonames-pt,20.0,2024-11-10 14:52:29.285463,Q33678050
158,1550-00-00,1910-10-15,Penamacor,Penamacor,,2736461,Penamacor,,,,Portugal,,40.16895,-7.16987,PRT.6.7.10_1,Penamacor,3.0,PRT.6.7_1,"Penamacor, Penamacor, Penamacor, Castelo Branco",Penamacor,geonames-pt,20.0,2024-11-10 14:52:29.286361,*notfound*
157,1566-03-02,1907-10-03,Eiras,Eiras,,8011799,Eiras,,,,Portugal,,40.24213,-8.42401,PRT.7.3.16_1,Eiras,3.0,PRT.7.3_1,"Eiras, Eiras, Coimbra, Coimbra",Eiras,geonames-pt,15.0,2024-11-10 14:52:30.526837,Q1310546
155,1579-10-02,1913-07-21,Condeixa-a-Nova,Condeixa-a-Nova,,2740593,Condeixa-a-Nova,,,,Portugal,,40.11283,-8.49804,PRT.7.4.4_1,Condeixa-a-Nova,3.0,PRT.7.4_1,"Condeixa-a-Nova, Condeixa-a-Nova, Condeixa-a-Nova, Coimbra",Condeixa-a-Nova,geonames-pt,20.0,2024-11-10 14:52:29.288153,Q49282120
153,1682-10-01,1913-07-11,Figueira da Foz,Figueira da Foz,,2739590,Figueira da Foz,,,,Portugal,,40.15085,-8.86179,PRT.7.5.15_1,São Julião da Figueira da Foz,3.0,PRT.7.5_1,"Figueira da Foz, São Julião da Figueira da Foz, Figueira da Foz, Coimbra",Figueira da Foz,geonames-pt,15.0,2024-11-10 14:52:30.384098,Q428459
151,1552-02-00,1907-10-01,Caminha,Caminha,,8010628,Caminha,,,,Portugal,,41.84647,-8.80133,PRT.18.2.16_1,Venade,3.0,PRT.18.2_1,"Caminha, Venade, Caminha, Viana do Castelo",Caminha,geonames-pt,15.0,2024-11-10 14:52:30.487968,Q1029544
150,1537-02-07,1910-10-31,Lagos,Lagos,,8010518,Lagos,,,,Portugal,,37.09567,-8.67661,PRT.9.7.3_1,Lagos (Santa Maria),3.0,PRT.9.7_1,"Lagos, Lagos (Santa Maria), Lagos, Faro",Lagos,geonames-pt,15.0,2024-11-10 14:52:30.488928,Q732548
148,1540-10-11,1900-10-11,Alenquer,Alenquer,,2272036,Alenquer,,,,Portugal,,39.05315,-9.00928,PRT.12.1.4_1,Alenquer (Santo Estêvão),3.0,PRT.12.1_1,"Alenquer, Alenquer (Santo Estêvão), Alenquer, Lisboa",Alenquer,geonames-pt,15.0,2024-11-10 14:52:30.385080,Q31878333
146,1567-11-03,1908-10-12,Alpedrinha,Alpedrinha,,8011686,Alpedrinha,,,,Portugal,,40.09073,-7.44958,PRT.6.4.6_1,Alpedrinha,3.0,PRT.6.4_1,"Alpedrinha, Alpedrinha, Fundão, Castelo Branco",Alpedrinha,geonames-pt,15.0,2024-11-10 14:52:30.527785,Q1024623
143,1537-00-00,1901-10-10,Arouca,Arouca,,2742700,Arouca,,,,Portugal,,40.93057,-8.24488,PRT.1.4.3_1,Arouca,3.0,PRT.1.4_1,"Arouca, Arouca, Arouca, Aveiro",Arouca,geonames-pt,20.0,2024-11-10 14:52:29.289943,*notfound*
141,1573-07-03,1907-10-03,Tondela,Tondela,,2733533,Tondela,,,,Portugal,,40.51682,-8.08087,PRT.20.21.23_1,Tondela,3.0,PRT.20.21_1,"Tondela, Tondela, Tondela, Viseu",Tondela,geonames-pt,20.0,2024-11-10 14:52:29.290893,Q49291646
140,1538-05-06,1909-10-02,Seia,Seia,,2734215,Seia,,,,Portugal,,40.4151,-7.70859,PRT.10.12.21_1,Seia,3.0,PRT.10.12_1,"Seia, Seia, Seia, Guarda",Seia,geonames-pt,20.0,2024-11-10 14:52:29.291826,Q49289399
137,1588-10-07,1905-10-12,Ançã,Ançã,,8011769,Ançã,,,,Portugal,,40.26858,-8.52768,PRT.7.2.1_1,Ançã,3.0,PRT.7.2_1,"Ançã, Ançã, Cantanhede, Coimbra",Ançã,geonames-pt,15.0,2024-11-10 14:52:30.528721,Q3645
136,1563-10-01,1912-08-13,Figueiró dos Vinhos,Figueiró dos Vinhos,,2268188,Figueiró dos Vinhos,,,,Portugal,,39.90413,-8.27511,PRT.11.8.5_1,Figueiró dos Vinhos,3.0,PRT.11.8_1,"Figueiró dos Vinhos, Figueiró dos Vinhos, Figueiró dos Vinhos, Leiria",Figueiró dos Vinhos,geonames-pt,20.0,2024-11-10 14:52:29.292801,*notfound*
136,1611-02-09,1858-10-13,Pernambuco,"Recife, Pernambuco, Brasil",,3390760,Recife,Pernambuco,,,Brasil,,-8.05389,-34.88111,2611606,Recife,3.0,BRA.17_1,"Recife, Recife, Pernambuco, Brasil",Recife,geonames-br,20.0,2024-11-10 14:52:29.221483,Q22061296
136,1537-05-22,1909-10-02,Santa Comba Dão,Santa Comba Dão,,2734747,Santa Comba Dão,,,,Portugal,,40.39856,-8.1316,PRT.20.14.5_1,Santa Comba Dão,3.0,PRT.20.14_1,"Santa Comba Dão, Santa Comba Dão, Santa Comba Dão, Viseu",Santa Comba Dão,geonames-pt,20.0,2024-11-10 14:52:29.293708,*notfound*
136,1536-10-00,1903-10-07,Vouzela,Vouzela,,2732233,Vouzela,,,,Portugal,,40.72361,-8.11283,PRT.20.24.12_1,Vouzela,3.0,PRT.20.24_1,"Vouzela, Vouzela, Vouzela, Viseu",Vouzela,geonames-pt,20.0,2024-11-10 14:52:29.294626,*notfound*
135,1537-05-23,1838-10-23,Condeixa,Condeixa-a-Nova,,2740593,Condeixa-a-Nova,,,,Portugal,,40.11283,-8.49804,PRT.7.4.4_1,Condeixa-a-Nova,3.0,PRT.7.4_1,"Condeixa-a-Nova, Condeixa-a-Nova, Condeixa-a-Nova, Coimbra",Condeixa-a-Nova,geonames-pt,20.0,2024-11-10 14:52:29.289044,Q49282120
135,1545-04-30,1909-10-12,Poiares,Poiares,,8011474,Poiares,,,,Portugal,,41.05898,-6.87608,PRT.5.4.6_1,Poiares,3.0,PRT.5.4_1,"Poiares, Poiares, Freixo de Espada à Cinta, Bragança",Poiares,geonames-pt,15.0,2024-11-10 14:52:30.529793,Q1024805
135,1550-10-10,1894-10-15,Redinha,Redinha,,8012410,Redinha,,,,Portugal,,39.97416,-8.57288,PRT.11.15.13_1,Redinha,3.0,PRT.11.15_1,"Redinha, Redinha, Pombal, Leiria",Redinha,geonames-pt,15.0,2024-11-10 14:52:30.530739,Q1887727
134,1537-00-00,1829-06-30,Olivença,"Olivenza, Espanha",,9883562,Olivenza,,,,Espanha,,38.68269,-7.10046,ESP.11.1.8_1,Olivenza,3.0,ESP.11.1_1,"Olivenza, Olivenza, Badajoz, Extremadura",Olivenza,geonames-es,15.0,2024-11-10 14:52:30.518284,Q120170977
133,1540-10-09,1909-10-06,Chamusca,Chamusca,,8012991,Chamusca,,,,Portugal,,39.33366,-8.4675,PRT.16.7.2_1,Chamusca,3.0,PRT.16.7_1,"Chamusca, Chamusca, Chamusca, Santarém",Chamusca,geonames-pt,20.0,2024-11-10 14:52:29.532580,Q2450955
132,1588-10-07,1861-10-03,Mortágua,Mortágua,,2737375,Mortágua,,,,Portugal,,40.39675,-8.23234,PRT.20.8.6_1,Mortágua,3.0,PRT.20.8_1,"Mortágua, Mortágua, Mortágua, Viseu",Mortágua,geonames-pt,20.0,2024-11-10 14:52:29.295530,*notfound*
132,1558-10-00,1907-10-04,Penacova,Penacova,,2736473,Penacova,,,,Portugal,,40.26884,-8.28237,PRT.7.13.7_1,Penacova,3.0,PRT.7.13_1,"Penacova, Penacova, Penacova, Coimbra",Penacova,geonames-pt,20.0,2024-11-10 14:52:29.296573,Q1005038
131,1540-01-22,1898-10-12,Fronteira,Fronteira,,2267832,Fronteira,,,,Portugal,,39.05629,-7.64868,PRT.14.8.2_1,Fronteira,3.0,PRT.14.8_1,"Fronteira, Fronteira, Fronteira, Portalegre",Fronteira,geonames-pt,20.0,2024-11-10 14:52:29.297522,*notfound*
127,1550-07-09,1905-10-03,Porto de Mós,Porto de Mós,,2264427,Porto de Mós,,,,Portugal,,39.60191,-8.81839,PRT.11.16.10_1,Porto de Mós (São João Baptista),3.0,PRT.11.16_1,"Porto de Mós, Porto de Mós (São João Baptista), Porto de Mós, Leiria",Porto de Mós,geonames-pt,15.0,2024-11-10 14:52:30.386084,Q1012710
126,1551-02-05,1907-10-08,Borba,Borba,,2270755,Borba,,,,Portugal,,38.80553,-7.45465,PRT.8.3.1_1,Borba (Matriz),3.0,PRT.8.3_1,"Borba, Borba (Matriz), Borba, Évora",Borba,geonames-pt,15.0,2024-11-10 14:52:30.388000,Q31924457
125,1556-10-01,1896-10-12,Linhares,Linhares,,8011462,Linhares,,,,Portugal,,41.18682,-7.36075,PRT.5.3.8_1,Linhares,3.0,PRT.5.3_1,"Linhares, Linhares, Carrazeda de Ansiães, Bragança",Linhares,geonames-pt,15.0,2024-11-10 14:52:30.531678,Q1024342
125,1574-10-12,1912-08-12,"Pernambuco, Brasil","Pernambuco, Brasil",,3390760,Pernambuco,,,,Brasil,,-8.05389,-34.88111,2611606,Recife,3.0,BRA.17_1,"Pernambuco, Recife, Pernambuco, Brasil",Pernambuco,geonames-br,15.0,2024-11-10 14:52:30.336102,Q22061296
125,1581-11-17,1886-10-15,Verride,Verride,,8011860,Verride,,,,Portugal,,40.13379,-8.71408,PRT.7.10.13_1,Verride,3.0,PRT.7.10_1,"Verride, Verride, Montemor-o-Velho, Coimbra",Verride,geonames-pt,15.0,2024-11-10 14:52:30.532663,Q925878
124,1538-10-01,1820-11-24,Celorico,Celorico da Beira,,2740886,Celorico da Beira,,,,Portugal,,40.63723,-7.39037,PRT.10.3.7_1,Celorico (São Pedro),3.0,PRT.10.3_1,"Celorico da Beira, Celorico (São Pedro), Celorico da Beira, Guarda",Celorico da Beira,geonames-pt,15.0,2024-11-10 14:52:30.388925,*notfound*
124,1564-02-26,1888-10-29,Maiorca,Maiorca,,8011826,Maiorca,,,,Portugal,,40.1687,-8.7501,PRT.7.5.9_1,Maiorca,3.0,PRT.7.5_1,"Maiorca, Maiorca, Figueira da Foz, Coimbra",Maiorca,geonames-pt,15.0,2024-11-10 14:52:30.533653,Q1009683
123,1553-07-12,1910-10-13,Idanha-a-Nova,Idanha-a-Nova,,2267427,Idanha-a-Nova,,,,Portugal,,39.92316,-7.24082,PRT.6.5.3_1,Idanha-a-Nova,3.0,PRT.6.5_1,"Idanha-a-Nova, Idanha-a-Nova, Idanha-a-Nova, Castelo Branco",Idanha-a-Nova,geonames-pt,20.0,2024-11-10 14:52:29.298439,*notfound*
116,1556-10-01,1912-10-16,Loulé,Loulé,,2266988,Loulé,,,,Portugal,,37.13772,-8.01968,PRT.9.8.6_1,Loulé (São Clemente),3.0,PRT.9.8_1,"Loulé, Loulé (São Clemente), Loulé, Faro",Loulé,geonames-pt,15.0,2024-11-10 14:52:30.390789,Q49286086
113,1538-04-22,1858-06-26,Ilha Terceira,Angra do Heroísmo,,8010691,Angra do Heroísmo,,,,Portugal,,38.69526,-27.24913,PRT.2.1.18_1,Terra Chã,3.0,PRT.2.1_1,"Angra do Heroísmo, Terra Chã, Angra do Heroísmo, Azores",Angra do Heroísmo,geonames-pt,15.0,2024-11-10 14:52:30.489918,Q193677
111,1538-10-16,1885-10-09,Besteiros,Besteiros,PT.GN.101359,8010929,Besteiros,,,,Portugal,,41.63874,-8.37134,PRT.4.1.3_1,Besteiros,3.0,PRT.4.1_1,"Besteiros, Besteiros, Amares, Braga",Besteiros,geonames-pt,15.0,2024-11-10 14:52:30.534614,Q830485
110,1671-05-20,1908-10-15,Peso da Régua,Peso da Régua,,2736316,Peso da Régua,,,,Portugal,,41.16318,-7.78901,PRT.19.8.8_1,Peso da Régua,3.0,PRT.19.8_1,"Peso da Régua, Peso da Régua, Peso da Régua, Vila Real",Peso da Régua,geonames-pt,20.0,2024-11-10 14:52:29.300247,Q49287912
109,1551-02-12,1827-10-10,"Punhete, hoje Constância",Constância,,2269088,Constância,,,,Portugal,,39.47796,-8.33636,PRT.16.8.1_1,Constância,3.0,PRT.16.8_1,"Constância, Constância, Constância, Santarém",Constância,geonames-pt,20.0,2024-11-10 14:52:29.301168,*notfound*
108,1566-10-00,1891-11-03,Beco,Beco,,8013008,Beco,,,,Portugal,,39.77766,-8.30525,PRT.16.11.3_1,Beco,3.0,PRT.16.11_1,"Beco, Beco, Ferreira do Zêzere, Santarém",Beco,geonames-pt,15.0,2024-11-10 14:52:30.535603,Q813770
108,1537-02-01,1910-08-05,"Ilha de São Miguel, Açores",Ponta Delgada,INE-A26-02719,6941014,Ponta Delgada,,,,Portugal,,37.73952,-25.66874,PRT.2.10.15_1,Ponta Delgada (São Sebastião),3.0,PRT.2.10_1,"Ponta Delgada, Ponta Delgada (São Sebastião), Ponta Delgada, Azores",Ponta Delgada,geonames-pt,15.0,2024-11-10 14:52:30.346472,Q49278070
107,1588-10-18,1910-10-12,Manteigas,Manteigas,,2737936,Manteigas,,,,Portugal,,40.4028,-7.53977,PRT.10.8.1_1,Manteigas (Santa Maria),3.0,PRT.10.8_1,"Manteigas, Manteigas (Santa Maria), Manteigas, Guarda",Manteigas,geonames-pt,15.0,2024-11-10 14:52:30.392648,Q49286486
107,1537-03-17,1900-10-03,São João da Pesqueira,São João da Pesqueira,,2734483,São João da Pesqueira,,,,Portugal,,41.14805,-7.40489,PRT.20.15.8_1,São João da Pesqueira,3.0,PRT.20.15_1,"São João da Pesqueira, São João da Pesqueira, São João da Pesqueira, Viseu",São João da Pesqueira,geonames-pt,20.0,2024-11-10 14:52:29.302967,Q1010466
104,1547-00-00,1904-10-15,Arraiolos,Arraiolos,,2271488,Arraiolos,,,,Portugal,,38.72363,-7.98478,PRT.8.2.1_1,Arraiolos,3.0,PRT.8.2_1,"Arraiolos, Arraiolos, Arraiolos, Évora",Arraiolos,geonames-pt,20.0,2024-11-10 14:52:29.304788,*notfound*
104,1537-11-30,1909-10-07,Melo,Melo,,8012119,Melo,,,,Portugal,,40.5177,-7.536,PRT.10.6.11_1,Melo,3.0,PRT.10.6_1,"Melo, Melo, Gouveia, Guarda",Melo,geonames-pt,15.0,2024-11-10 14:52:30.536553,Q32580
103,1697-12-21,1912-10-24,Funchal,Funchal,,2267827,Funchal,,,,Portugal,,32.66568,-16.92547,PRT.13.3.10_1,São Roque,3.0,PRT.13.3_1,"Funchal, São Roque, Funchal, Madeira",Funchal,geonames-pt,15.0,2024-11-10 14:52:30.350317,Q25444
103,1550-01-04,1872-10-02,Taveiro,Taveiro,,8011808,Taveiro,,,,Portugal,,40.19835,-8.50061,PRT.7.3.27_1,Taveiro,3.0,PRT.7.3_1,"Taveiro, Taveiro, Coimbra, Coimbra",Taveiro,geonames-pt,15.0,2024-11-10 14:52:30.537569,Q979492
103,1540-01-12,1916-10-09,Valença do Minho,Valença,,2733018,Valença,,,,Portugal,,42.03104,-8.64595,PRT.18.8.15_1,Valença,3.0,PRT.18.8_1,"Valença, Valença, Valença, Viana do Castelo",Valença,geonames-pt,20.0,2024-11-10 14:52:29.305681,*notfound*
101,1570-10-01,1905-10-13,Ponte da Barca,Ponte da Barca,,2736057,Ponte da Barca,,,,Portugal,,41.80451,-8.41554,PRT.18.6.16_1,Ponte da Barca,3.0,PRT.18.6_1,"Ponte da Barca, Ponte da Barca, Ponte da Barca, Viana do Castelo",Ponte da Barca,geonames-pt,20.0,2024-11-10 14:52:29.308373,*notfound*
100,1537-12-20,1899-10-02,Alvaiázere,Alvaiázere,,2271814,Alvaiázere,,,,Portugal,,39.82256,-8.37999,PRT.11.2.2_1,Alvaiázere,3.0,PRT.11.2_1,"Alvaiázere, Alvaiázere, Alvaiázere, Leiria",Alvaiázere,geonames-pt,20.0,2024-11-10 14:52:29.309325,*notfound*
100,1595-10-01,1909-10-04,São Martinho do Bispo,São Martinho do Bispo,,8014792,São Martinho do Bispo,,,,Portugal,,40.20916,-8.47654,PRT.7.3.23_1,São Martinho do Bispo,3.0,PRT.7.3_1,"São Martinho do Bispo, São Martinho do Bispo, Coimbra, Coimbra",São Martinho do Bispo,geonames-pt,15.0,2024-11-10 14:52:30.538553,Q2119234
100,1600-10-05,1910-10-10,Vila Nova de Cerveira,Vila Nova de Cerveira,,2732555,Vila Nova de Cerveira,,,,Portugal,,41.94118,-8.7423,PRT.18.10.15_1,Vila Nova de Cerveira,3.0,PRT.18.10_1,"Vila Nova de Cerveira, Vila Nova de Cerveira, Vila Nova de Cerveira, Viana do Castelo",Vila Nova de Cerveira,geonames-pt,20.0,2024-11-10 14:52:29.310230,*notfound*
100,1587-10-20,1912-06-17,Vila Nova de Gaia,Vila Nova de Gaia,,2732544,Vila Nova de Gaia,,,,Portugal,,41.12401,-8.61241,PRT.15.18.10_1,Mafamude,3.0,PRT.15.18_1,"Vila Nova de Gaia, Mafamude, Vila Nova de Gaia, Porto",Vila Nova de Gaia,geonames-pt,15.0,2024-11-10 14:52:30.393682,Q1982979
99,1542-06-17,1912-07-24,Mirandela,Mirandela,,2737639,Mirandela,,,,Portugal,,41.48739,-7.18695,PRT.5.7.21_1,Mirandela,3.0,PRT.5.7_1,"Mirandela, Mirandela, Mirandela, Bragança",Mirandela,geonames-pt,20.0,2024-11-10 14:52:29.312026,Q49286835
99,1552-05-00,1901-10-14,Pedrogão Grande,Pedrógão Grande,,2265000,Pedrógão Grande,,,,Portugal,,39.91835,-8.1459,PRT.11.13.2_1,Pedrógão Grande,3.0,PRT.11.13_1,"Pedrógão Grande, Pedrógão Grande, Pedrógão Grande, Leiria",Pedrógão Grande,geonames-pt,20.0,2024-11-10 14:52:29.313052,*notfound*
99,1585-10-02,1769-10-01,Terra da Feira,Santa Maria da Feira,,2739723,Santa Maria da Feira,,,,Portugal,,40.92535,-8.54277,PRT.1.15.7_1,Feira,3.0,PRT.1.15_1,"Santa Maria da Feira, Feira, Santa Maria da Feira, Aveiro",Santa Maria da Feira,geonames-pt,15.0,2024-11-10 14:52:30.394688,Q2015920
98,1540-00-00,1908-10-07,Cernache,Cernache,,8011798,Cernache,,,,Portugal,,40.13581,-8.46187,PRT.7.3.11_1,Cernache,3.0,PRT.7.3_1,"Cernache, Cernache, Coimbra, Coimbra",Cernache,geonames-pt,15.0,2024-11-10 14:52:30.550154,Q1055349
98,1537-07-11,1907-10-12,Crato,Crato,,2268835,Crato,,,,Portugal,,39.28657,-7.64408,PRT.14.6.2_1,Crato e Mártires,3.0,PRT.14.6_1,"Crato, Crato e Mártires, Crato, Portalegre",Crato,geonames-pt,15.0,2024-11-10 14:52:30.495701,Q1005138
97,1538-00-00,1913-07-07,Mesão Frio,Mesão Frio,,2737711,Mesão Frio,,,,Portugal,,41.1598,-7.88954,PRT.19.4.4_1,Mesão Frio (São Nicolau),3.0,PRT.19.4_1,"Mesão Frio, Mesão Frio (São Nicolau), Mesão Frio, Vila Real",Mesão Frio,geonames-pt,15.0,2024-11-10 14:52:30.397684,*notfound*
96,1537-00-00,1906-10-08,Golegã,Golegã,,2267624,Golegã,,,,Portugal,,39.40474,-8.48625,PRT.16.12.2_1,Golegã,3.0,PRT.16.12_1,"Golegã, Golegã, Golegã, Santarém",Golegã,geonames-pt,20.0,2024-11-10 14:52:29.315834,Q49283388
96,1579-01-00,1820-11-14,Vila Nova de Anços,Vila Nova de Anços,,8014266,Vila Nova de Anços,,,,Portugal,,40.11538,-8.62443,PRT.7.15.11_1,Vila Nova de Anços,3.0,PRT.7.15_1,"Vila Nova de Anços, Vila Nova de Anços, Soure, Coimbra",Vila Nova de Anços,geonames-pt,15.0,2024-11-10 14:52:30.553126,Q595254
95,1540-02-07,1903-10-14,Almeida,Almeida,,8010529,Almeida,,,,Portugal,,40.7307,-6.90594,PRT.10.2.3_1,Almeida,3.0,PRT.10.2_1,"Almeida, Almeida, Almeida, Guarda",Almeida,geonames-pt,20.0,2024-11-10 14:52:29.508420,Q617889
95,1586-03-20,1908-10-08,Resende,Resende,,2735243,Resende,,,,Portugal,,41.10582,-7.9665,PRT.20.13.11_1,Resende,3.0,PRT.20.13_1,"Resende, Resende, Resende, Viseu",Resende,geonames-pt,20.0,2024-11-10 14:52:29.316741,Q2450194
94,1580-03-11,1847-10-23,Lorvão,Lorvão,,8011879,Lorvão,,,,Portugal,,40.24963,-8.32594,PRT.7.13.4_1,Lorvão,3.0,PRT.7.13_1,"Lorvão, Lorvão, Penacova, Coimbra",Lorvão,geonames-pt,15.0,2024-11-10 14:52:30.554097,Q33822221
94,1571-12-10,1910-10-13,Monforte,Monforte,,6930694,Monforte,,,,Portugal,,39.0496,-7.44428,PRT.14.11.2_1,Monforte,3.0,PRT.14.11_1,"Monforte, Monforte, Monforte, Portalegre",Monforte,geonames-pt,20.0,2024-11-10 14:52:29.509326,Q769062
93,1552-07-00,1908-10-02,Avis,Avis,,2271340,Avis,,,,Portugal,,39.05391,-7.89156,PRT.14.3.3_1,Avis,3.0,PRT.14.3_1,"Avis, Avis, Avis, Portalegre",Avis,geonames-pt,20.0,2024-11-10 14:52:29.317656,*notfound*
93,1540-10-06,1905-10-07,Fonte Arcada,Fonte Arcada,,8011245,Fonte Arcada,,,,Portugal,,41.57591,-8.24385,PRT.4.9.9_1,Fonte Arcada,3.0,PRT.4.9_1,"Fonte Arcada, Fonte Arcada, Póvoa de Lanhoso, Braga",Fonte Arcada,geonames-pt,15.0,2024-11-10 14:52:30.555123,Q963921
93,1567-03-03,1913-10-09,Lobão,Lobão,,8010787,Lobão,,,,Portugal,,40.98286,-8.49203,PRT.1.15.12_1,Lobão,3.0,PRT.1.15_1,"Lobão, Lobão, Santa Maria da Feira, Aveiro",Lobão,geonames-pt,15.0,2024-11-10 14:52:30.556162,Q4264583
91,1556-02-01,1908-10-02,Esgueira,Esgueira,,8010749,Esgueira,,,,Portugal,,40.65709,-8.618,PRT.1.5.5_1,Esgueira,3.0,PRT.1.5_1,"Esgueira, Esgueira, Aveiro, Aveiro",Esgueira,geonames-pt,15.0,2024-11-10 14:52:30.557139,Q2258588
91,1540-01-21,1907-10-15,Vila Nova de Foz Côa,Vila Nova de Foz Côa,,2732546,Vila Nova de Foz Côa,,,,Portugal,,41.08194,-7.14146,PRT.10.14.17_1,Vila Nova de Foz Côa,3.0,PRT.10.14_1,"Vila Nova de Foz Côa, Vila Nova de Foz Côa, Vila Nova de Foz Côa, Guarda",Vila Nova de Foz Côa,geonames-pt,20.0,2024-11-10 14:52:29.318572,*notfound*
91,1575-00-00,1907-10-01,Ílhavo,Ílhavo,,2738707,Ílhavo,,,,Portugal,,40.60188,-8.67021,PRT.1.9.4_1,Ílhavo (São Salvador),3.0,PRT.1.9_1,"Ílhavo, Ílhavo (São Salvador), Ílhavo, Aveiro",Ílhavo,geonames-pt,15.0,2024-11-10 14:52:30.398616,Q291745
89,1537-07-03,1819-07-19,Bemposta,Bemposta,,8011553,Bemposta,,,,Portugal,,41.30684,-6.49779,PRT.5.8.2_1,Bemposta,3.0,PRT.5.8_1,"Bemposta, Bemposta, Mogadouro, Bragança",Bemposta,geonames-pt,15.0,2024-11-10 14:52:30.558126,Q816392
89,1585-10-02,1899-10-15,Matosinhos,Matosinhos,,2737824,Matosinhos,,,,Portugal,,41.18207,-8.68908,PRT.15.8.6_1,Matosinhos,3.0,PRT.15.8_1,"Matosinhos, Matosinhos, Matosinhos, Porto",Matosinhos,geonames-pt,20.0,2024-11-10 14:52:29.319474,Q3349324
88,1706-11-23,1909-10-04,Penafiel,Penafiel,,2736469,Penafiel,,,,Portugal,,41.20835,-8.28285,PRT.15.11.24_1,Penafiel,3.0,PRT.15.11_1,"Penafiel, Penafiel, Penafiel, Porto",Penafiel,geonames-pt,20.0,2024-11-10 14:52:29.277106,Q49287885
86,1540-00-00,1799-10-03,Tancos,Tancos,,8013091,Tancos,,,,Portugal,,39.46624,-8.39801,PRT.16.21.4_1,Tancos,3.0,PRT.16.21_1,"Tancos, Tancos, Vila Nova da Barquinha, Santarém",Tancos,geonames-pt,15.0,2024-11-10 14:52:30.559134,Q2296675
85,1552-10-00,1739-01-16,Penalva,Penalva,,2736465,Penalva,,,,Portugal,,41.11156,-8.06702,PRT.15.2.1_1,Ancede,3.0,PRT.15.2_1,"Penalva, Ancede, Baião, Porto",Penalva,geonames-pt,10.0,2024-11-10 14:52:32.945493,*notfound*
84,1693-03-01,1909-10-07,Mangualde,Mangualde,,2737949,Mangualde,,,,Portugal,,40.60425,-7.76115,PRT.20.6.10_1,Mangualde,3.0,PRT.20.6_1,"Mangualde, Mangualde, Mangualde, Viseu",Mangualde,geonames-pt,20.0,2024-11-10 14:52:29.320373,Q597789
84,1537-12-18,1893-10-09,Viana do Alentejo,Viana do Alentejo,,2261694,Viana do Alentejo,,,,Portugal,,38.33458,-8.0044,PRT.8.13.3_1,Viana do Alentejo,3.0,PRT.8.13_1,"Viana do Alentejo, Viana do Alentejo, Viana do Alentejo, Évora",Viana do Alentejo,geonames-pt,20.0,2024-11-10 14:52:29.321275,*notfound*
82,1591-10-01,1818-10-12,Arrancada,"Arrancada, Valongo do Vouga, Águeda, Aveiro",,2742693,Arrancada,Valongo do Vouga,Águeda,Aveiro,Portugal,,40.61771,-8.42388,PRT.1.1.20_1,Valongo do Vouga,3.0,PRT.1.1_1,"Arrancada, Valongo do Vouga, Águeda, Aveiro",Arrancada,geonames-pt,30.0,2024-11-10 14:52:29.119647,*notfound*
82,1585-10-03,1889-10-02,Formoselha,"Formoselha, Montemor-o-Velho",,2739379,Formoselha,Montemor-o-Velho,,,Portugal,,40.17996,-8.61377,PRT.7.10.10_1,Santo Varão,3.0,PRT.7.10_1,"Formoselha, Santo Varão, Montemor-o-Velho, Coimbra",Formoselha,geonames-pt,15.0,2024-11-10 14:52:32.240757,*notfound*
81,1592-10-08,1878-10-15,Peniche,Peniche,,8010554,Peniche,,,,Portugal,,39.36166,-9.36869,PRT.11.14.3_1,Peniche (Ajuda),3.0,PRT.11.14_1,"Peniche, Peniche (Ajuda), Peniche, Leiria",Peniche,geonames-pt,15.0,2024-11-10 14:52:30.497103,Q941967
80,1622-10-02,1910-10-31,Celorico da Beira,Celorico da Beira,,2740886,Celorico da Beira,,,,Portugal,,40.63723,-7.39037,PRT.10.3.7_1,Celorico (São Pedro),3.0,PRT.10.3_1,"Celorico da Beira, Celorico (São Pedro), Celorico da Beira, Guarda",Celorico da Beira,geonames-pt,15.0,2024-11-10 14:52:30.389860,*notfound*
80,1538-12-01,1904-10-07,Miranda do Douro,Miranda do Douro,,2737640,Miranda do Douro,,,,Portugal,,41.49692,-6.27308,PRT.5.6.9_1,Miranda do Douro,3.0,PRT.5.6_1,"Miranda do Douro, Miranda do Douro, Miranda do Douro, Bragança",Miranda do Douro,geonames-pt,20.0,2024-11-10 14:52:29.323073,Q373475
80,1540-10-17,1912-07-12,Mogadouro,Mogadouro,,8010467,Mogadouro,,,,Portugal,,41.34193,-6.71934,PRT.5.8.10_1,Mogadouro,3.0,PRT.5.8_1,"Mogadouro, Mogadouro, Mogadouro, Bragança",Mogadouro,geonames-pt,20.0,2024-11-10 14:52:29.510271,Q33694353
80,1601-10-04,1912-07-23,Oliveira de Azeméis,Oliveira de Azeméis,,2737046,Oliveira de Azeméis,,,,Portugal,,40.84101,-8.47555,PRT.1.12.9_1,Oliveira de Azeméis,3.0,PRT.1.12_1,"Oliveira de Azeméis, Oliveira de Azeméis, Oliveira de Azeméis, Aveiro",Oliveira de Azeméis,geonames-pt,20.0,2024-11-10 14:52:29.323981,Q49287657
79,1568-10-26,1882-06-14,Feira,Santa Maria da Feira,,2739723,Santa Maria da Feira,,,,Portugal,,40.92535,-8.54277,PRT.1.15.7_1,Feira,3.0,PRT.1.15_1,"Santa Maria da Feira, Feira, Santa Maria da Feira, Aveiro",Santa Maria da Feira,geonames-pt,15.0,2024-11-10 14:52:30.395642,Q2015920
79,1540-10-13,1869-07-21,Portel,Portel,,2264503,Portel,,,,Portugal,,38.30697,-7.70244,PRT.8.9.5_1,Portel,3.0,PRT.8.9_1,"Portel, Portel, Portel, Évora",Portel,geonames-pt,20.0,2024-11-10 14:52:29.324911,*notfound*
78,1557-00-00,1907-10-09,Moimenta da Beira,Moimenta da Beira,,2737581,Moimenta da Beira,,,,Portugal,,40.98383,-7.61765,PRT.20.7.10_1,Moimenta da Beira,3.0,PRT.20.7_1,"Moimenta da Beira, Moimenta da Beira, Moimenta da Beira, Viseu",Moimenta da Beira,geonames-pt,20.0,2024-11-10 14:52:29.325847,*notfound*
78,1590-10-09,1909-10-08,Pocariça,Pocariça,,8011779,Pocariça,,,,Portugal,,40.37845,-8.5834,PRT.7.2.13_1,Pocariça,3.0,PRT.7.2_1,"Pocariça, Pocariça, Cantanhede, Coimbra",Pocariça,geonames-pt,15.0,2024-11-10 14:52:30.560181,Q3667
77,1538-11-26,1915-10-28,Alcácer do Sal,Alcácer do Sal,,2272212,Alcácer do Sal,,,,Portugal,,38.37326,-8.51444,PRT.17.1.1_1,Alcácer do Sal (Santa Maria do C,3.0,PRT.17.1_1,"Alcácer do Sal, Alcácer do Sal (Santa Maria do C, Alcácer do Sal, Setúbal",Alcácer do Sal,geonames-pt,15.0,2024-11-10 14:52:30.399545,Q850697
77,1538-12-05,1910-10-14,Vila Nova de Portimão,Portimão,,8012023,Portimão,,,,Portugal,,37.18004,-8.53528,PRT.9.11.3_1,Portimão,3.0,PRT.9.11_1,"Portimão, Portimão, Portimão, Faro",Portimão,geonames-pt,20.0,2024-11-10 14:52:29.533511,Q33842244
77,1581-01-28,1909-10-02,Vila da Feira,Santa Maria da Feira,,2739723,Santa Maria da Feira,,,,Portugal,,40.92535,-8.54277,PRT.1.15.7_1,Feira,3.0,PRT.1.15_1,"Santa Maria da Feira, Feira, Santa Maria da Feira, Aveiro",Santa Maria da Feira,geonames-pt,15.0,2024-11-10 14:52:30.396739,Q2015920
76,1583-10-29,1907-10-09,Mação,Mação,,2266924,Mação,,,,Portugal,,39.55573,-7.99421,PRT.16.13.6_1,Mação,3.0,PRT.16.13_1,"Mação, Mação, Mação, Santarém",Mação,geonames-pt,20.0,2024-11-10 14:52:29.326797,*notfound*
76,1574-05-15,1904-10-07,Santa Marinha,Santa Marinha,,8012256,Santa Marinha,,,,Portugal,,40.44589,-7.66247,PRT.10.12.16_1,Santa Marinha,3.0,PRT.10.12_1,"Santa Marinha, Santa Marinha, Seia, Guarda",Santa Marinha,geonames-pt,15.0,2024-11-10 14:52:30.561171,Q1399236
75,1540-00-00,1879-10-15,Alvito,Alvito,,2271789,Alvito,,,,Portugal,,38.25611,-7.99158,PRT.3.3.1_1,Alvito,3.0,PRT.3.3_1,"Alvito, Alvito, Alvito, Beja",Alvito,geonames-pt,20.0,2024-11-10 14:52:29.327724,*notfound*
75,1620-10-01,1909-10-02,Benavente,Benavente,,2270940,Benavente,,,,Portugal,,38.97919,-8.80759,PRT.16.5.2_1,Benavente,3.0,PRT.16.5_1,"Benavente, Benavente, Benavente, Santarém",Benavente,geonames-pt,20.0,2024-11-10 14:52:29.328648,*notfound*
75,1549-06-19,1848-10-31,Coura,Coura,,8013277,Coura,,,,Portugal,,41.87445,-8.655,PRT.18.5.5_1,Coura,3.0,PRT.18.5_1,"Coura, Coura, Paredes de Coura, Viana do Castelo",Coura,geonames-pt,15.0,2024-11-10 14:52:30.562139,Q1137619
75,1649-11-15,1912-08-12,Ponta Delgada,Ponta Delgada,,6941014,Ponta Delgada,,,,Portugal,,37.73952,-25.66874,PRT.2.10.15_1,Ponta Delgada (São Sebastião),3.0,PRT.2.10_1,"Ponta Delgada, Ponta Delgada (São Sebastião), Ponta Delgada, Azores",Ponta Delgada,geonames-pt,15.0,2024-11-10 14:52:30.347461,Q49278070
74,1591-10-07,1891-10-22,Celas,Celas,,8011620,Celas,,,,Portugal,,41.70544,-6.93075,PRT.5.12.4_1,Celas,3.0,PRT.5.12_1,"Celas, Celas, Vinhais, Bragança",Celas,geonames-pt,15.0,2024-11-10 14:52:30.563621,Q1052779
74,1555-02-01,1900-10-06,Midões,Midões,,8010995,Midões,,,,Portugal,,41.50262,-8.58623,PRT.4.2.54_1,Midões,3.0,PRT.4.2_1,"Midões, Midões, Barcelos, Braga",Midões,geonames-pt,15.0,2024-11-10 14:52:30.564790,Q206069
73,1551-10-00,1910-10-10,Marvão,Marvão,,6930631,Marvão,,,,Portugal,,39.40516,-7.35854,PRT.14.10.3_1,Santo António das Areias,3.0,PRT.14.10_1,"Marvão, Santo António das Areias, Marvão, Portalegre",Marvão,geonames-pt,15.0,2024-11-10 14:52:30.498140,Q988863
73,1537-09-26,1906-10-15,Oliveira do Hospital,Oliveira do Hospital,,2737038,Oliveira do Hospital,,,,Portugal,,40.3618,-7.86014,PRT.7.11.12_1,Oliveira do Hospital,3.0,PRT.7.11_1,"Oliveira do Hospital, Oliveira do Hospital, Oliveira do Hospital, Coimbra",Oliveira do Hospital,geonames-pt,20.0,2024-11-10 14:52:29.329752,Q49287661
72,1540-10-13,1887-10-14,Pedrogão,Pedrógão Grande,,2265000,Pedrógão Grande,,,,Portugal,,39.91835,-8.1459,PRT.11.13.2_1,Pedrógão Grande,3.0,PRT.11.13_1,"Pedrógão Grande, Pedrógão Grande, Pedrógão Grande, Leiria",Pedrógão Grande,geonames-pt,20.0,2024-11-10 14:52:29.314002,*notfound*
72,1566-03-03,1907-10-01,Vila Franca de Xira,Vila Franca de Xira,,2261639,Vila Franca de Xira,,,,Portugal,,38.95525,-8.98966,PRT.12.16.12_1,Vila Franca de Xira,3.0,PRT.12.16_1,"Vila Franca de Xira, Vila Franca de Xira, Vila Franca de Xira, Lisboa",Vila Franca de Xira,geonames-pt,20.0,2024-11-10 14:52:29.330946,Q49292312
71,1540-12-10,1904-10-03,Batalha,Batalha,,2271006,Batalha,,,,Portugal,,39.66025,-8.82475,PRT.11.4.1_1,Batalha,3.0,PRT.11.4_1,"Batalha, Batalha, Batalha, Leiria",Batalha,geonames-pt,20.0,2024-11-10 14:52:29.331919,Q31912265
71,1648-10-08,1908-10-07,Caldas da Rainha,Caldas da Rainha,,2270437,Caldas da Rainha,,,,Portugal,,39.40326,-9.13839,PRT.11.6.3_1,Caldas da Rainha (Nossa Senhora,3.0,PRT.11.6_1,"Caldas da Rainha, Caldas da Rainha (Nossa Senhora, Caldas da Rainha, Leiria",Caldas da Rainha,geonames-pt,15.0,2024-11-10 14:52:30.400481,*notfound*
71,1554-02-12,1914-07-21,Coruche,Coruche,,2268946,Coruche,,,,Portugal,,38.95955,-8.52524,PRT.16.9.3_1,Coruche,3.0,PRT.16.9_1,"Coruche, Coruche, Coruche, Santarém",Coruche,geonames-pt,20.0,2024-11-10 14:52:29.333830,Q49282137
70,1540-10-16,1900-10-03,Aljubarrota,Aljubarrota,,2271966,Aljubarrota,,,,Portugal,,39.56715,-8.92925,PRT.11.1.3_1,Aljubarrota (Prazeres),3.0,PRT.11.1_1,"Aljubarrota, Aljubarrota (Prazeres), Alcobaça, Leiria",Aljubarrota,geonames-pt,10.0,2024-11-10 14:52:32.946463,Q2623372
70,1578-10-04,1909-10-09,Anadia,Anadia,,2742908,Anadia,,,,Portugal,,40.43841,-8.43352,PRT.1.3.4_1,Arcos,3.0,PRT.1.3_1,"Anadia, Arcos, Anadia, Aveiro",Anadia,geonames-pt,15.0,2024-11-10 14:52:30.402363,Q395919
70,1563-10-01,1896-10-10,Coja,Coja,,8011762,Coja,,,,Portugal,,40.26855,-7.98552,PRT.7.1.8_1,Coja,3.0,PRT.7.1_1,"Coja, Coja, Arganil, Coimbra",Coja,geonames-pt,15.0,2024-11-10 14:52:30.566097,Q3664
70,1673-10-01,1909-10-02,Mondim de Basto,Mondim de Basto,,2737515,Mondim de Basto,,,,Portugal,,41.41157,-7.95441,PRT.19.5.5_1,Mondim de Basto,3.0,PRT.19.5_1,"Mondim de Basto, Mondim de Basto, Mondim de Basto, Vila Real",Mondim de Basto,geonames-pt,20.0,2024-11-10 14:52:29.334787,*notfound*
69,1592-10-08,1869-10-02,Barca,Barca,,8012742,Barca,,,,Portugal,,41.251,-8.61495,PRT.15.6.4_1,Barca,3.0,PRT.15.6_1,"Barca, Barca, Maia, Porto",Barca,geonames-pt,15.0,2024-11-10 14:52:30.567115,Q807891
69,1575-11-15,1908-10-02,Melgaço,Melgaço,,8010629,Melgaço,,,,Portugal,,42.08067,-8.24844,PRT.18.3.17_1,São Paio,3.0,PRT.18.3_1,"Melgaço, São Paio, Melgaço, Viana do Castelo",Melgaço,geonames-pt,15.0,2024-11-10 14:52:30.499099,Q491888
69,1569-11-11,1912-08-08,São João de Areias,São João de Areias,,8014348,São João de Areias,,,,Portugal,,40.39695,-8.07939,PRT.20.14.7_1,São João de Areias,3.0,PRT.20.14_1,"São João de Areias, São João de Areias, Santa Comba Dão, Viseu",São João de Areias,geonames-pt,15.0,2024-11-10 14:52:30.568162,Q33862224
68,1669-01-03,1888-10-31,Carapinheira,Carapinheira,,8011853,Carapinheira,,,,Portugal,,40.21154,-8.648,PRT.7.10.3_1,Carapinheira,3.0,PRT.7.10_1,"Carapinheira, Carapinheira, Montemor-o-Velho, Coimbra",Carapinheira,geonames-pt,15.0,2024-11-10 14:52:30.569186,Q1024857
68,1568-10-04,1897-10-11,Folques,Folques,,8011763,Folques,,,,Portugal,,40.21251,-7.99441,PRT.7.1.9_1,Folques,3.0,PRT.7.1_1,"Folques, Folques, Arganil, Coimbra",Folques,geonames-pt,15.0,2024-11-10 14:52:30.570256,Q3225
68,1549-00-00,1905-10-12,Louriçal,Louriçal,,8012406,Louriçal,,,,Portugal,,40.00273,-8.74708,PRT.11.15.8_1,Louriçal,3.0,PRT.11.15_1,"Louriçal, Louriçal, Pombal, Leiria",Louriçal,geonames-pt,15.0,2024-11-10 14:52:30.571254,Q33822637
68,1540-10-21,1770-10-01,Penaguião,Santa Marta de Penaguião,,2734667,Santa Marta de Penaguião,,,,Portugal,,41.20991,-7.78386,PRT.19.11.6_1,Lobrigos (São Miguel),3.0,PRT.19.11_1,"Santa Marta de Penaguião, Lobrigos (São Miguel), Santa Marta de Penaguião, Vila Real",Santa Marta de Penaguião,geonames-pt,15.0,2024-11-10 14:52:30.403296,Q1006372
68,1555-02-06,1900-10-12,Vidigueira,Vidigueira,,2261675,Vidigueira,,,,Portugal,,38.20995,-7.8005,PRT.3.14.3_1,Vidigueira,3.0,PRT.3.14_1,"Vidigueira, Vidigueira, Vidigueira, Beja",Vidigueira,geonames-pt,20.0,2024-11-10 14:52:29.336676,*notfound*
67,1555-02-06,1907-10-15,Botão,Botão,,8011794,Botão,,,,Portugal,,40.32134,-8.39529,PRT.7.3.7_1,Botão,3.0,PRT.7.3_1,"Botão, Botão, Coimbra, Coimbra",Botão,geonames-pt,15.0,2024-11-10 14:52:30.572228,Q894936
67,1590-00-00,1907-10-15,Cabeceiras de Basto,Cabeceiras de Basto,,8014457,Cabeceiras de Basto,,,,Portugal,,41.56551,-8.02575,PRT.4.4.6_1,Cabeceiras de Basto,3.0,PRT.4.4_1,"Cabeceiras de Basto, Cabeceiras de Basto, Cabeceiras de Basto, Braga",Cabeceiras de Basto,geonames-pt,20.0,2024-11-10 14:52:29.535341,Q1998324
67,1590-10-16,1765-10-01,Entre Ambos-os-Rios,Entre Ambos-os-Rios,,8013298,Entre Ambos-os-Rios,,,,Portugal,,41.81028,-8.2991,PRT.18.6.7_1,Entre Ambos-os-Rios,3.0,PRT.18.6_1,"Entre Ambos-os-Rios, Entre Ambos-os-Rios, Ponte da Barca, Viana do Castelo",Entre Ambos-os-Rios,geonames-pt,15.0,2024-11-10 14:52:30.573173,Q1022041
67,1589-11-13,1898-10-16,Travanca,Travanca,,8010798,Travanca,,,,Portugal,,40.90714,-8.56318,PRT.1.15.29_1,Travanca,3.0,PRT.1.15_1,"Travanca, Travanca, Santa Maria da Feira, Aveiro",Travanca,geonames-pt,15.0,2024-11-10 14:52:30.574174,Q2462104
67,1571-05-04,1897-10-08,Vila Flor,Vila Flor,,2261643,Vila Flor,,,,Portugal,,41.30904,-7.15378,PRT.5.10.17_1,Vila Flor,3.0,PRT.5.10_1,"Vila Flor, Vila Flor, Vila Flor, Bragança",Vila Flor,geonames-pt,20.0,2024-11-10 14:52:29.337618,*notfound*
66,1540-10-11,1909-10-07,Alter do Chão,Alter do Chão,,6930689,Alter do Chão,,,,Portugal,,39.23098,-7.7443,PRT.14.1.1_1,Alter do Chão,3.0,PRT.14.1_1,"Alter do Chão, Alter do Chão, Alter do Chão, Portalegre",Alter do Chão,geonames-pt,20.0,2024-11-10 14:52:29.511215,Q438263
66,1583-10-24,1761-10-01,São Miguel do Outeiro,São Miguel do Outeiro,,8014164,São Miguel do Outeiro,,,,Portugal,,40.59923,-8.03533,PRT.20.21.20_1,São Miguel do Outeiro,3.0,PRT.20.21_1,"São Miguel do Outeiro, São Miguel do Outeiro, Tondela, Viseu",São Miguel do Outeiro,geonames-pt,15.0,2024-11-10 14:52:30.575186,Q154170
65,1585-10-02,1884-10-13,Felgueiras,Felgueiras,,2739693,Felgueiras,,,,Portugal,,41.36806,-8.19396,PRT.15.3.11_1,Margaride (Santa Eulália),3.0,PRT.15.3_1,"Felgueiras, Margaride (Santa Eulália), Felgueiras, Porto",Felgueiras,geonames-pt,15.0,2024-11-10 14:52:30.405156,*notfound*
65,1570-10-10,1901-10-09,Palmela,Palmela,,2265223,Palmela,,,,Portugal,,38.56902,-8.90126,PRT.17.8.2_1,Palmela,3.0,PRT.17.8_1,"Palmela, Palmela, Palmela, Setúbal",Palmela,geonames-pt,20.0,2024-11-10 14:52:29.338668,Q33705689
65,1574-03-13,1910-10-31,Sabugosa,Sabugosa,,8013971,Sabugosa,,,,Portugal,,40.5662,-8.02643,PRT.20.21.17_1,Sabugosa,3.0,PRT.20.21_1,"Sabugosa, Sabugosa, Tondela, Viseu",Sabugosa,geonames-pt,15.0,2024-11-10 14:52:30.577191,Q154159
65,1593-10-01,1881-10-15,São Romão,São Romão,,8012259,São Romão,,,,Portugal,,40.38636,-7.68734,PRT.10.12.19_1,São Romão,3.0,PRT.10.12_1,"São Romão, São Romão, Seia, Guarda",São Romão,geonames-pt,15.0,2024-11-10 14:52:30.578247,Q1943011
65,1625-10-15,1895-11-03,Valongo,Valongo,,2732978,Valongo,,,,Portugal,,41.18883,-8.49857,PRT.15.16.5_1,Valongo,3.0,PRT.15.16_1,"Valongo, Valongo, Valongo, Porto",Valongo,geonames-pt,20.0,2024-11-10 14:52:29.339642,Q49292234
64,1565-11-01,1897-10-12,Arcos,Arcos,,8010722,Arcos,,,,Portugal,,40.45003,-8.43815,PRT.1.3.4_1,Arcos,3.0,PRT.1.3_1,"Arcos, Arcos, Anadia, Aveiro",Arcos,geonames-pt,15.0,2024-11-10 14:52:30.580624,Q1910956
64,1581-12-11,1808-11-29,Irlanda,"Dublin, Irlanda",,2964574,Dublin,,,,Irlanda,,53.33306,-6.24889,IRL.6_1,Dublin,1.0,IRL.6_1,"Dublin, Dublin, Dublin, Dublin",Dublin,geonames-ie,25.0,2024-11-10 14:52:29.150636,Q1761
64,1539-12-07,1883-10-03,Lourosa,Lourosa,,8010789,Lourosa,,,,Portugal,,40.98241,-8.54231,PRT.1.15.14_1,Lourosa,3.0,PRT.1.15_1,"Lourosa, Lourosa, Santa Maria da Feira, Aveiro",Lourosa,geonames-pt,15.0,2024-11-10 14:52:30.581900,Q1872343
64,1538-00-00,1908-10-08,Sernancelhe,Sernancelhe,,2734074,Sernancelhe,,,,Portugal,,40.89871,-7.49342,PRT.20.18.16_1,Sernancelhe,3.0,PRT.20.18_1,"Sernancelhe, Sernancelhe, Sernancelhe, Viseu",Sernancelhe,geonames-pt,20.0,2024-11-10 14:52:29.341543,*notfound*
64,1587-10-08,1883-10-02,Valezim,Valezim,,8012265,Valezim,,,,Portugal,,40.35889,-7.70831,PRT.10.12.26_1,Valezim,3.0,PRT.10.12_1,"Valezim, Valezim, Seia, Guarda",Valezim,geonames-pt,15.0,2024-11-10 14:52:30.582887,Q2051680
63,1566-10-01,1908-10-02,Baião,Baião,,2742504,Baião,,,,Portugal,,41.16273,-8.0347,PRT.15.2.3_1,Campelo,3.0,PRT.15.2_1,"Baião, Campelo, Baião, Porto",Baião,geonames-pt,15.0,2024-11-10 14:52:30.407011,*notfound*
63,1589-11-04,1908-10-05,Freixo de Espada à Cinta,Freixo de Espada à Cinta,,2739222,Freixo de Espada à Cinta,,,,Portugal,,41.09033,-6.80648,PRT.5.4.2_1,Freixo de Espada À Cinta,3.0,PRT.5.4_1,"Freixo de Espada à Cinta, Freixo de Espada À Cinta, Freixo de Espada à Cinta, Bragança",Freixo de Espada à Cinta,geonames-pt,15.0,2024-11-10 14:52:30.407936,Q551684
63,1540-06-13,1847-10-04,Oliveira do Conde,Oliveira do Conde,,7116057,Oliveira do Conde,,,,Portugal,,40.44178,-7.954,PRT.20.2.4_1,Oliveira do Conde,3.0,PRT.20.2_1,"Oliveira do Conde, Oliveira do Conde, Carregal do Sal, Viseu",Oliveira do Conde,geonames-pt,15.0,2024-11-10 14:52:30.583932,Q64708
63,1548-01-01,1905-10-03,Pombeiro,Pombeiro da Beira,,8014875,Pombeiro da Beira,,,,Portugal,,40.22597,-8.13461,PRT.7.1.13_1,Pombeiro da Beira,3.0,PRT.7.1_1,"Pombeiro da Beira, Pombeiro da Beira, Arganil, Coimbra",Pombeiro da Beira,geonames-pt,15.0,2024-11-10 14:52:30.584902,Q3520
63,1577-11-13,1835-10-13,São Martinho de Salreu,Salreu,,8010775,Salreu,,,,Portugal,,40.74093,-8.5666,PRT.1.8.6_1,Salreu,3.0,PRT.1.8_1,"Salreu, Salreu, Estarreja, Aveiro",Salreu,geonames-pt,15.0,2024-11-10 14:52:30.585894,Q2259873
63,1567-00-00,1902-10-25,Veiros,"Veiros, Veiros, Estarreja, Aveiro",,8010776,Veiros,Veiros,Estarreja,Aveiro,Portugal,,40.75155,-8.60804,PRT.1.8.7_1,Veiros,3.0,PRT.1.8_1,"Veiros, Veiros, Estarreja, Aveiro",Veiros,geonames-pt,35.0,2024-11-10 14:52:29.095041,Q2196358
61,1538-05-09,1817-10-31,Azurara,Azurara,,8012906,Azurara,,,,Portugal,,41.34426,-8.73778,PRT.15.17.4_1,Azurara,3.0,PRT.15.17_1,"Azurara, Azurara, Vila do Conde, Porto",Azurara,geonames-pt,15.0,2024-11-10 14:52:30.587985,Q794332
61,1620-10-07,1909-10-12,Moimenta da Serra,Moimenta da Serra,,8014505,Moimenta da Serra,,,,Portugal,,40.47359,-7.63839,PRT.10.6.12_1,Moimenta da Serra,3.0,PRT.10.6_1,"Moimenta da Serra, Moimenta da Serra, Gouveia, Guarda",Moimenta da Serra,geonames-pt,15.0,2024-11-10 14:52:30.588966,Q32705
61,1591-10-31,1871-10-11,Provesende,Provesende,,8013671,Provesende,,,,Portugal,,41.22068,-7.56394,PRT.19.10.8_1,Provesende,3.0,PRT.19.10_1,"Provesende, Provesende, Sabrosa, Vila Real",Provesende,geonames-pt,15.0,2024-11-10 14:52:30.589965,Q799438
60,1544-01-28,1900-10-05,Alvorge,Alvorge,,8012326,Alvorge,,,,Portugal,,39.99113,-8.46189,PRT.11.3.1_1,Alvorge,3.0,PRT.11.3_1,"Alvorge, Alvorge, Ansião, Leiria",Alvorge,geonames-pt,15.0,2024-11-10 14:52:30.590985,Q449588
60,1537-12-18,1903-10-03,Canas de Senhorim,Canas de Senhorim,,8014160,Canas de Senhorim,,,,Portugal,,40.50061,-7.90099,PRT.20.9.2_1,Canas de Senhorim,3.0,PRT.20.9_1,"Canas de Senhorim, Canas de Senhorim, Nelas, Viseu",Canas de Senhorim,geonames-pt,15.0,2024-11-10 14:52:30.591943,Q74854
60,1537-11-26,1910-10-02,Sintra,Sintra,,2262912,Sintra,,,,Portugal,,38.80097,-9.37826,PRT.12.13.17_1,Sintra (Santa Maria e São Miguel,3.0,PRT.12.13_1,"Sintra, Sintra (Santa Maria e São Miguel, Sintra, Lisboa",Sintra,geonames-pt,15.0,2024-11-10 14:52:30.410737,Q33716124
60,1571-03-24,1854-10-14,São Martinho de Mouros,São Martinho de Mouros,,8014642,São Martinho de Mouros,,,,Portugal,,41.09678,-7.88802,PRT.20.13.14_1,São Martinho de Mouros,3.0,PRT.20.13_1,"São Martinho de Mouros, São Martinho de Mouros, Resende, Viseu",São Martinho de Mouros,geonames-pt,15.0,2024-11-10 14:52:30.593923,Q301806
59,1601-11-06,1909-10-04,Cabanas,Cabanas de Viriato,,8014599,Cabanas de Viriato,,,,Portugal,,40.48021,-7.97205,PRT.20.2.2_1,Cabanas de Viriato,3.0,PRT.20.2_1,"Cabanas de Viriato, Cabanas de Viriato, Carregal do Sal, Viseu",Cabanas de Viriato,geonames-pt,15.0,2024-11-10 14:52:30.595959,Q33791262
59,1559-10-15,1910-10-12,Cernache do Bonjardim,Cernache do Bomjardim,,8014252,Cernache do Bomjardim,,,,Portugal,,39.80454,-8.23068,PRT.6.9.4_1,Cernache do Bonjardim,3.0,PRT.6.9_1,"Cernache do Bonjardim, Cernache do Bonjardim, Sertã, Castelo Branco",Cernache do Bonjardim,geonames-pt,9.523809523809524,2024-11-10 14:52:33.665478,Q1055347
59,1540-10-06,1909-10-15,Redondo,Redondo,,2264009,Redondo,,,,Portugal,,38.64872,-7.54708,PRT.8.10.2_1,Redondo,3.0,PRT.8.10_1,"Redondo, Redondo, Redondo, Évora",Redondo,geonames-pt,20.0,2024-11-10 14:52:29.342517,Q49288697
59,1551-00-00,1913-07-09,Vila Pouca de Aguiar,Vila Pouca de Aguiar,,2732517,Vila Pouca de Aguiar,,,,Portugal,,41.50018,-7.64383,PRT.19.13.16_1,Vila Pouca de Aguiar,3.0,PRT.19.13_1,"Vila Pouca de Aguiar, Vila Pouca de Aguiar, Vila Pouca de Aguiar, Vila Real",Vila Pouca de Aguiar,geonames-pt,20.0,2024-11-10 14:52:29.343497,*notfound*
58,1576-10-25,1908-10-02,Castro Daire,Castro Daire,,2740974,Castro Daire,,,,Portugal,,40.8984,-7.93381,PRT.20.3.4_1,Castro Daire,3.0,PRT.20.3_1,"Castro Daire, Castro Daire, Castro Daire, Viseu",Castro Daire,geonames-pt,20.0,2024-11-10 14:52:29.344438,Q49281778
58,1604-11-29,1909-10-09,Fornos de Algodres,Fornos de Algodres,,8014402,Fornos de Algodres,,,,Portugal,,40.60386,-7.55186,PRT.10.5.5_1,Fornos de Algodres,3.0,PRT.10.5_1,"Fornos de Algodres, Fornos de Algodres, Fornos de Algodres, Guarda",Fornos de Algodres,geonames-pt,20.0,2024-11-10 14:52:29.537156,Q1997892
58,1564-10-01,1899-10-12,Freixo de Numão,Freixo de Numão,,8014431,Freixo de Numão,,,,Portugal,,41.07402,-7.22972,PRT.10.14.6_1,Freixo de Numão,3.0,PRT.10.14_1,"Freixo de Numão, Freixo de Numão, Vila Nova de Foz Côa, Guarda",Freixo de Numão,geonames-pt,15.0,2024-11-10 14:52:30.597375,Q33812280
58,1580-03-19,1906-10-02,Semide,Semide,,8011849,Semide,,,,Portugal,,40.16744,-8.32814,PRT.7.9.4_1,Semide,3.0,PRT.7.9_1,"Semide, Semide, Miranda do Corvo, Coimbra",Semide,geonames-pt,15.0,2024-11-10 14:52:30.598360,Q770548
57,1571-03-24,1907-10-12,Pampilhosa,Pampilhosa,,8010807,Pampilhosa,,,,Portugal,,40.33771,-8.42684,PRT.1.10.6_1,Pampilhosa,3.0,PRT.1.10_1,"Pampilhosa, Pampilhosa, Mealhada, Aveiro",Pampilhosa,geonames-pt,15.0,2024-11-10 14:52:30.599329,Q1003010
57,1573-03-07,1908-10-02,"Ponta Delgada, Açores",Ponta Delgada,INE-A26-02719,6941014,Ponta Delgada,,,,Portugal,,37.73952,-25.66874,PRT.2.10.15_1,Ponta Delgada (São Sebastião),3.0,PRT.2.10_1,"Ponta Delgada, Ponta Delgada (São Sebastião), Ponta Delgada, Azores",Ponta Delgada,geonames-pt,15.0,2024-11-10 14:52:30.348427,Q49278070
57,1572-10-27,1910-10-15,Proença-a-Nova,Proença-a-Nova,,2264314,Proença-a-Nova,,,,Portugal,,39.7522,-7.9239,PRT.6.8.4_1,Proença-a-Nova,3.0,PRT.6.8_1,"Proença-a-Nova, Proença-a-Nova, Proença-a-Nova, Castelo Branco",Proença-a-Nova,geonames-pt,20.0,2024-11-10 14:52:29.345655,Q49288188
57,1538-10-22,1905-10-07,Santar,Santar,,8013201,Santar,,,,Portugal,,41.81969,-8.42395,PRT.18.1.39_1,Santar,3.0,PRT.18.1_1,"Santar, Santar, Arcos de Valdevez, Viana do Castelo",Santar,geonames-pt,15.0,2024-11-10 14:52:30.600271,Q1022052
56,1575-10-25,1870-10-03,Figueira,Figueira,,8012827,Figueira,,,,Portugal,,41.12416,-8.33514,PRT.15.11.11_1,Figueira,3.0,PRT.15.11_1,"Figueira, Figueira, Penafiel, Porto",Figueira,geonames-pt,15.0,2024-11-10 14:52:30.601351,Q1016658
56,1577-12-12,1903-10-23,Mealhada,Mealhada,,2737809,Mealhada,,,,Portugal,,40.37806,-8.44991,PRT.1.10.5_1,Mealhada,3.0,PRT.1.10_1,"Mealhada, Mealhada, Mealhada, Aveiro",Mealhada,geonames-pt,20.0,2024-11-10 14:52:29.347559,Q49286643
55,1593-12-24,1906-10-02,Moncorvo,Torre de Moncorvo,,2733488,Torre de Moncorvo,,,,Portugal,,41.17454,-7.05364,PRT.5.9.16_1,Torre de Moncorvo,3.0,PRT.5.9_1,"Torre de Moncorvo, Torre de Moncorvo, Torre de Moncorvo, Bragança",Torre de Moncorvo,geonames-pt,20.0,2024-11-10 14:52:29.274220,*notfound*
55,1598-12-09,1842-10-14,Santo Varão,Santo Varão,,8011858,Santo Varão,,,,Portugal,,40.1718,-8.61636,PRT.7.10.10_1,Santo Varão,3.0,PRT.7.10_1,"Santo Varão, Santo Varão, Montemor-o-Velho, Coimbra",Santo Varão,geonames-pt,15.0,2024-11-10 14:52:30.602363,Q1024328
55,1585-10-29,1908-10-09,Vacariça,Vacariça,,8010808,Vacariça,,,,Portugal,,40.36842,-8.41013,PRT.1.10.7_1,Vacariça,3.0,PRT.1.10_1,"Vacariça, Vacariça, Mealhada, Aveiro",Vacariça,geonames-pt,15.0,2024-11-10 14:52:30.603377,Q2236805
54,1589-11-10,1900-10-03,Almalaguês,Almalaguês,,8011787,Almalaguês,,,,Portugal,,40.13059,-8.39035,PRT.7.3.1_1,Almalaguês,3.0,PRT.7.3_1,"Almalaguês, Almalaguês, Coimbra, Coimbra",Almalaguês,geonames-pt,15.0,2024-11-10 14:52:30.604356,Q2119247
54,1580-04-12,1906-10-04,Alpalhão,Alpalhão,,6930627,Alpalhão,,,,Portugal,,39.41445,-7.62196,PRT.14.12.1_1,Alpalhão,3.0,PRT.14.12_1,"Alpalhão, Alpalhão, Nisa, Portalegre",Alpalhão,geonames-pt,15.0,2024-11-10 14:52:30.605290,Q1997074
54,1624-10-22,1891-10-23,Murça,Murça,,2737256,Murça,,,,Portugal,,41.406,-7.45485,PRT.19.7.5_1,Murça,3.0,PRT.19.7_1,"Murça, Murça, Murça, Vila Real",Murça,geonames-pt,20.0,2024-11-10 14:52:29.348722,*notfound*
54,1540-03-17,1825-10-12,Vila Franca,Vila Franca,,8013401,Vila Franca,,,,Portugal,,41.68324,-8.74472,PRT.18.9.37_1,Vila Franca,3.0,PRT.18.9_1,"Vila Franca, Vila Franca, Viana do Castelo, Viana do Castelo",Vila Franca,geonames-pt,15.0,2024-11-10 14:52:30.606220,Q1261599
53,1552-10-00,1866-10-13,"Ilha Terceira, Açores",Angra do Heroísmo,,8010691,Angra do Heroísmo,,,,Portugal,,38.69526,-27.24913,PRT.2.1.18_1,Terra Chã,3.0,PRT.2.1_1,"Angra do Heroísmo, Terra Chã, Angra do Heroísmo, Azores",Angra do Heroísmo,geonames-pt,15.0,2024-11-10 14:52:30.490886,Q193677
53,1540-01-11,1910-10-11,Leomil,"Leomil, Leomil, Moimenta da Beira, Viseu",,8013828,Leomil,Leomil,Moimenta da Beira,Viseu,Portugal,,40.98392,-7.65653,PRT.20.7.9_1,Leomil,3.0,PRT.20.7_1,"Leomil, Leomil, Moimenta da Beira, Viseu",Leomil,geonames-pt,35.0,2024-11-10 14:52:29.065426,Q74390
53,1582-10-02,1893-10-03,Tavarede,Tavarede,,8011830,Tavarede,,,,Portugal,,40.16993,-8.83856,PRT.7.5.17_1,Tavarede,3.0,PRT.7.5_1,"Tavarede, Tavarede, Figueira da Foz, Coimbra",Tavarede,geonames-pt,15.0,2024-11-10 14:52:30.607149,Q2118692
52,1604-10-11,1905-10-03,Alcains,Alcains,,8011648,Alcains,,,,Portugal,,39.91665,-7.45875,PRT.6.2.1_1,Alcains,3.0,PRT.6.2_1,"Alcains, Alcains, Castelo Branco, Castelo Branco",Alcains,geonames-pt,15.0,2024-11-10 14:52:30.608077,Q31877461
52,1605-10-19,1886-10-15,Avô,Avô,,8011862,Avô,,,,Portugal,,40.29623,-7.90323,PRT.7.11.3_1,Avô,3.0,PRT.7.11_1,"Avô, Avô, Oliveira do Hospital, Coimbra",Avô,geonames-pt,15.0,2024-11-10 14:52:30.609012,Q791570
52,1577-11-01,1909-10-18,Cascais,Cascais,,8012457,Cascais,,,,Portugal,,38.72527,-9.47189,PRT.12.6.3_1,Cascais,3.0,PRT.12.6_1,"Cascais, Cascais, Cascais, Lisboa",Cascais,geonames-pt,20.0,2024-11-10 14:52:29.538052,Q512030
52,1587-10-22,1888-11-12,Lobrigos,"Lobrigos, Lobrigos (São Miguel), Santa Marta de Penaguião, Vila Real",PT.GN.95926,2738268,Lobrigos,Lobrigos (São Miguel),Santa Marta de Penaguião,Vila Real,Portugal,,41.2042,-7.77684,PRT.19.11.6_1,Lobrigos (São Miguel),3.0,PRT.19.11_1,"Lobrigos, Lobrigos (São Miguel), Santa Marta de Penaguião, Vila Real",Lobrigos,geonames-pt,30.0,2024-11-10 14:52:29.123261,*notfound*
52,1596-10-05,1913-07-28,Vimieiro,Vimieiro,,8011088,Vimieiro,,,,Portugal,,41.50101,-8.46157,PRT.4.3.61_1,Vimieiro,3.0,PRT.4.3_1,"Vimieiro, Vimieiro, Braga, Braga",Vimieiro,geonames-pt,15.0,2024-11-10 14:52:30.609944,Q2012228
52,1593-10-05,1897-10-13,Vinhais,Vinhais,,2732286,Vinhais,,,,Portugal,,41.83509,-7.00501,PRT.5.12.35_1,Vinhais,3.0,PRT.5.12_1,"Vinhais, Vinhais, Vinhais, Bragança",Vinhais,geonames-pt,20.0,2024-11-10 14:52:29.349709,Q551103
51,1565-10-01,1896-10-05,Avelãs de Caminho,Avelãs de Caminho,,8014389,Avelãs de Caminho,,,,Portugal,,40.48493,-8.44343,PRT.1.3.5_1,Avelãs de Caminho,3.0,PRT.1.3_1,"Avelãs de Caminho, Avelãs de Caminho, Anadia, Aveiro",Avelãs de Caminho,geonames-pt,15.0,2024-11-10 14:52:30.610877,Q2258947
51,1590-10-04,1909-10-09,Esposende,Esposende,,2739848,Esposende,,,,Portugal,,41.5361,-8.78201,PRT.4.6.5_1,Esposende,3.0,PRT.4.6_1,"Esposende, Esposende, Esposende, Braga",Esposende,geonames-pt,20.0,2024-11-10 14:52:29.350632,Q49282910
51,1623-11-21,1878-10-08,Quiaios,Quiaios,,8011828,Quiaios,,,,Portugal,,40.22337,-8.84187,PRT.7.5.13_1,Quiaios,3.0,PRT.7.5_1,"Quiaios, Quiaios, Figueira da Foz, Coimbra",Quiaios,geonames-pt,15.0,2024-11-10 14:52:30.611802,Q1024001
50,1599-01-13,1879-07-28,Rabaçal,Rabaçal,,8011885,Rabaçal,,,,Portugal,,40.03265,-8.45535,PRT.7.14.6_1,Rabaçal,3.0,PRT.7.14_1,"Rabaçal, Rabaçal, Penela, Coimbra",Rabaçal,geonames-pt,15.0,2024-11-10 14:52:30.612726,Q1024475
50,1555-03-04,1847-10-05,Valadares,Valadares,,8012678,Valadares,,,,Portugal,,41.14634,-7.98561,PRT.15.2.19_1,Valadares,3.0,PRT.15.2_1,"Valadares, Valadares, Baião, Porto",Valadares,geonames-pt,15.0,2024-11-10 14:52:30.613818,Q1023424
49,1556-02-01,1806-10-29,Alcáçovas,Alcáçovas,,8011962,Alcáçovas,,,,Portugal,,38.39527,-8.15701,PRT.8.13.2_1,Alcáçovas,3.0,PRT.8.13_1,"Alcáçovas, Alcáçovas, Viana do Alentejo, Évora",Alcáçovas,geonames-pt,15.0,2024-11-10 14:52:30.614780,Q422014
49,1558-11-15,1903-10-06,Aldeia Galega,Montijo,,2265788,Montijo,,,,Portugal,,38.70675,-8.97388,PRT.17.7.5_1,Montijo,3.0,PRT.17.7_1,"Montijo, Montijo, Montijo, Setúbal",Montijo,geonames-pt,20.0,2024-11-10 14:52:29.351553,Q49286912
49,1537-02-19,1898-10-06,Almada,Almada,,2271961,Almada,,,,Portugal,,38.67902,-9.1569,PRT.17.3.1_1,Almada,3.0,PRT.17.3_1,"Almada, Almada, Almada, Setúbal",Almada,geonames-pt,20.0,2024-11-10 14:52:29.352456,Q31879307
49,1540-01-12,1908-07-04,Castelo Viegas,Castelo Viegas,,8011796,Castelo Viegas,,,,Portugal,,40.16606,-8.4089,PRT.7.3.9_1,Castelo Viegas,3.0,PRT.7.3_1,"Castelo Viegas, Castelo Viegas, Coimbra, Coimbra",Castelo Viegas,geonames-pt,15.0,2024-11-10 14:52:30.615721,Q1048985
49,1566-10-01,1809-11-07,Torrão,Torrão,,8012775,Torrão,,,,Portugal,,41.08559,-8.28408,PRT.15.7.25_1,Torrão,3.0,PRT.15.7_1,"Torrão, Torrão, Marco de Canaveses, Porto",Torrão,geonames-pt,15.0,2024-11-10 14:52:30.616662,Q1025004
49,1577-05-06,1887-10-05,Turcifal,Turcifal,,8012574,Turcifal,,,,Portugal,,39.03578,-9.26017,PRT.12.15.19_1,Turcifal,3.0,PRT.12.15_1,"Turcifal, Turcifal, Torres Vedras, Lisboa",Turcifal,geonames-pt,15.0,2024-11-10 14:52:30.617601,Q2119181
48,1585-01-15,1870-10-14,Amieira,Amieira,,8011719,Amieira,,,,Portugal,,39.98469,-7.90535,PRT.6.6.2_1,Amieira,3.0,PRT.6.6_1,"Amieira, Amieira, Oleiros, Castelo Branco",Amieira,geonames-pt,15.0,2024-11-10 14:52:30.618537,Q470929
48,1587-10-19,1916-10-11,Avanca,Avanca,,8010770,Avanca,,,,Portugal,,40.80659,-8.57226,PRT.1.8.1_1,Avanca,3.0,PRT.1.8_1,"Avanca, Avanca, Estarreja, Aveiro",Avanca,geonames-pt,15.0,2024-11-10 14:52:30.619465,Q790121
48,1552-10-01,1892-12-07,Sameice,Sameice,,8012252,Sameice,,,,Portugal,,40.4293,-7.77958,PRT.10.12.12_1,Sameice,3.0,PRT.10.12_1,"Sameice, Sameice, Seia, Guarda",Sameice,geonames-pt,15.0,2024-11-10 14:52:30.620414,Q1709134
48,1563-10-06,1907-10-02,Santo Tirso,Santo Tirso,,2734570,Santo Tirso,,,,Portugal,,41.34257,-8.47746,PRT.15.14.21_1,Santo Tirso,3.0,PRT.15.14_1,"Santo Tirso, Santo Tirso, Santo Tirso, Porto",Santo Tirso,geonames-pt,20.0,2024-11-10 14:52:29.353361,*notfound*
47,1553-07-10,1909-10-07,Ceira,Ceira,,8011797,Ceira,,,,Portugal,,40.1789,-8.38046,PRT.7.3.10_1,Ceira,3.0,PRT.7.3_1,"Ceira, Ceira, Coimbra, Coimbra",Ceira,geonames-pt,15.0,2024-11-10 14:52:30.621343,Q33798344
47,1686-10-01,1907-10-11,Estarreja,Estarreja,,2739837,Estarreja,,,,Portugal,,40.75648,-8.57207,PRT.1.8.2_1,Beduído,3.0,PRT.1.8_1,"Estarreja, Beduído, Estarreja, Aveiro",Estarreja,geonames-pt,15.0,2024-11-10 14:52:30.411668,*notfound*
47,1553-10-00,1885-07-18,Ferreira,Ferreira,,8011488,Ferreira,,,,Portugal,,41.63728,-6.98109,PRT.5.5.14_1,Ferreira,3.0,PRT.5.5_1,"Ferreira, Ferreira, Macedo de Cavaleiros, Bragança",Ferreira,geonames-pt,15.0,2024-11-10 14:52:30.622270,Q1024473
47,1558-10-01,1908-10-07,Rio de Moinhos,Rio de Moinhos,,8014054,Rio de Moinhos,,,,Portugal,,37.89115,-8.25005,PRT.3.1.4_1,Rio de Moinhos,3.0,PRT.3.1_1,"Rio de Moinhos, Rio de Moinhos, Aljustrel, Beja",Rio de Moinhos,geonames-pt,15.0,2024-11-10 14:52:30.623202,Q2066967
47,1594-10-01,1909-10-08,Teixoso,Teixoso,,8011676,Teixoso,,,,Portugal,,40.31712,-7.44003,PRT.6.3.25_1,Teixoso,3.0,PRT.6.3_1,"Teixoso, Teixoso, Covilhã, Castelo Branco",Teixoso,geonames-pt,15.0,2024-11-10 14:52:30.624131,Q1145109
46,1591-10-10,1895-10-04,Chão de Couce,Chão de Couce,,8014255,Chão de Couce,,,,Portugal,,39.9054,-8.39307,PRT.11.3.4_1,Chão de Couce,3.0,PRT.11.3_1,"Chão de Couce, Chão de Couce, Ansião, Leiria",Chão de Couce,geonames-pt,15.0,2024-11-10 14:52:30.625051,Q1090903
46,1537-12-18,1912-06-19,São Vicente da Beira,São Vicente da Beira,,8014263,São Vicente da Beira,,,,Portugal,,40.01632,-7.58604,PRT.6.2.22_1,São Vicente da Beira,3.0,PRT.6.2_1,"São Vicente da Beira, São Vicente da Beira, Castelo Branco, Castelo Branco",São Vicente da Beira,geonames-pt,15.0,2024-11-10 14:52:30.626899,Q1024260
46,1579-11-28,1907-10-11,Vila Verde,Vila Verde,,2732326,Vila Verde,,,,Portugal,,41.64729,-8.43715,PRT.4.13.57_1,Vila Verde,3.0,PRT.4.13_1,"Vila Verde, Vila Verde, Vila Verde, Braga",Vila Verde,geonames-pt,20.0,2024-11-10 14:52:29.354258,Q49292318
45,1705-10-01,1906-10-02,Albergaria-a-Velha,Albergaria-a-Velha,,2743233,Albergaria-a-Velha,,,,Portugal,,40.69318,-8.47994,PRT.1.2.1_1,Albergaria-a-Velha,3.0,PRT.1.2_1,"Albergaria-a-Velha, Albergaria-a-Velha, Albergaria-a-Velha, Aveiro",Albergaria-a-Velha,geonames-pt,20.0,2024-11-10 14:52:29.355157,Q31877247
45,1580-04-10,1867-10-15,Angeja,Angeja,,8010717,Angeja,,,,Portugal,,40.69029,-8.57526,PRT.1.2.3_1,Angeja,3.0,PRT.1.2_1,"Angeja, Angeja, Albergaria-a-Velha, Aveiro",Angeja,geonames-pt,15.0,2024-11-10 14:52:30.629906,Q531245
45,1704-11-14,1909-10-07,"Angra do Heroísmo, Açores",Angra do Heroísmo,,8010691,Angra do Heroísmo,,,,Portugal,,38.69526,-27.24913,PRT.2.1.18_1,Terra Chã,3.0,PRT.2.1_1,"Angra do Heroísmo, Terra Chã, Angra do Heroísmo, Azores",Angra do Heroísmo,geonames-pt,15.0,2024-11-10 14:52:30.491835,Q193677
45,1562-12-31,1793-10-31,Arrifana de Santa Maria,"Arrifana, Arrifana, Santa Maria da Feira, Aveiro",PT.GN.95006,8010778,Arrifana,Arrifana,Santa Maria da Feira,Aveiro,Portugal,,40.91114,-8.50596,PRT.1.15.2_1,Arrifana,3.0,PRT.1.15_1,"Arrifana, Arrifana, Santa Maria da Feira, Aveiro",Arrifana,geonames-pt,35.0,2024-11-10 14:52:29.105101,Q4069891
45,1553-00-00,1805-10-11,Arronches,Arronches,,2271448,Arronches,,,,Portugal,,39.12242,-7.28619,PRT.14.2.1_1,Assunção,3.0,PRT.14.2_1,"Arronches, Assunção, Arronches, Portalegre",Arronches,geonames-pt,15.0,2024-11-10 14:52:30.412609,Q700311
45,1663-10-01,1856-01-05,São Gião,São Gião,,8011870,São Gião,,,,Portugal,,40.3288,-7.78731,PRT.7.11.15_1,São Gião,3.0,PRT.7.11_1,"São Gião, São Gião, Oliveira do Hospital, Coimbra",São Gião,geonames-pt,15.0,2024-11-10 14:52:30.630911,Q588104
45,1550-11-01,1888-10-15,Vila Nova de Monsarros,Vila Nova de Monsarros,,8014349,Vila Nova de Monsarros,,,,Portugal,,40.41522,-8.39149,PRT.1.3.14_1,Vila Nova de Monsarros,3.0,PRT.1.3_1,"Vila Nova de Monsarros, Vila Nova de Monsarros, Anadia, Aveiro",Vila Nova de Monsarros,geonames-pt,15.0,2024-11-10 14:52:30.631874,Q2257821
44,1592-10-28,1902-06-14,Almendra,Almendra,,8012291,Almendra,,,,Portugal,,41.00425,-7.04192,PRT.10.14.1_1,Almendra,3.0,PRT.10.14_1,"Almendra, Almendra, Vila Nova de Foz Côa, Guarda",Almendra,geonames-pt,15.0,2024-11-10 14:52:30.632818,Q33787170
44,1556-00-00,1892-10-27,Arruda,Arruda dos Vinhos,,2271438,Arruda dos Vinhos,,,,Portugal,,38.98411,-9.07746,PRT.12.3.2_1,Arruda dos Vinhos,3.0,PRT.12.3_1,"Arruda dos Vinhos, Arruda dos Vinhos, Arruda dos Vinhos, Lisboa",Arruda dos Vinhos,geonames-pt,20.0,2024-11-10 14:52:29.356059,Q703854
44,1549-07-31,1895-10-14,Caria,Caria,,8011645,Caria,,,,Portugal,,40.28634,-7.34052,PRT.6.1.2_1,Caria,3.0,PRT.6.1_1,"Caria, Caria, Belmonte, Castelo Branco",Caria,geonames-pt,15.0,2024-11-10 14:52:30.633755,Q111526
44,1586-10-14,1906-10-08,Eixo,Eixo,,8010748,Eixo,,,,Portugal,,40.62874,-8.57332,PRT.1.5.4_1,Eixo,3.0,PRT.1.5_1,"Eixo, Eixo, Aveiro, Aveiro",Eixo,geonames-pt,15.0,2024-11-10 14:52:30.634690,Q1074630
44,1722-10-01,1845-10-02,"São Paulo, Brasil","São Paulo, Brasil",,3448439,São Paulo,,,,Brasil,,-23.5475,-46.63611,3550308,São Paulo,3.0,BRA.25_1,"São Paulo, São Paulo, São Paulo, Brasil",São Paulo,geonames-br,20.0,2024-11-10 14:52:29.226902,*notfound*
43,1615-11-18,1909-10-11,Alvares,Alvares,,8011836,Alvares,,,,Portugal,,40.02751,-8.09573,PRT.7.6.1_1,Alvares,3.0,PRT.7.6_1,"Alvares, Alvares, Góis, Coimbra",Alvares,geonames-pt,15.0,2024-11-10 14:52:30.635626,Q448439
43,1624-10-19,1859-10-08,Bobadela,"Bobadela, Bobadela, Oliveira do Hospital, Coimbra",,8011863,Bobadela,Bobadela,Oliveira do Hospital,Coimbra,Portugal,,40.36313,-7.88817,PRT.7.11.4_1,Bobadela,3.0,PRT.7.11_1,"Bobadela, Bobadela, Oliveira do Hospital, Coimbra",Bobadela,geonames-pt,35.0,2024-11-10 14:52:29.066381,Q888363
43,1540-10-17,1798-10-02,Canavezes,Marco de Canaveses,,2737921,Marco de Canaveses,,,,Portugal,,41.18389,-8.14864,PRT.15.7.27_1,Tuias,3.0,PRT.15.7_1,"Marco de Canaveses, Tuias, Marco de Canaveses, Porto",Marco de Canaveses,geonames-pt,15.0,2024-11-10 14:52:30.413696,*notfound*
43,1550-06-09,1871-10-10,Celorico de Basto,Celorico de Basto,,2740885,Celorico de Basto,,,,Portugal,,41.38714,-8.00101,PRT.4.5.6_1,Britelo,3.0,PRT.4.5_1,"Celorico de Basto, Britelo, Celorico de Basto, Braga",Celorico de Basto,geonames-pt,15.0,2024-11-10 14:52:30.416502,*notfound*
43,1604-10-01,1846-11-30,Ega,Ega,,8011815,Ega,,,,Portugal,,40.09352,-8.54903,PRT.7.4.6_1,Ega,3.0,PRT.7.4_1,"Ega, Ega, Condeixa-a-Nova, Coimbra",Ega,geonames-pt,15.0,2024-11-10 14:52:30.636560,Q1024386
43,1782-10-31,1898-10-14,Maranhão,"São Luís, Maranhão, Brasil",,3388368,São Luís,Maranhão,,,Brasil,,-2.52972,-44.30278,2111300,São Luís,3.0,BRA.10_1,"São Luís, São Luís, Maranhão, Brasil",São Luís,geonames-br,20.0,2024-11-10 14:52:29.233416,Q22059837
43,1537-12-18,1912-07-20,Sabugal,Sabugal,,2734925,Sabugal,,,,Portugal,,40.35127,-7.09104,PRT.10.11.30_1,Sabugal,3.0,PRT.10.11_1,"Sabugal, Sabugal, Sabugal, Guarda",Sabugal,geonames-pt,20.0,2024-11-10 14:52:29.357860,Q14526368
43,1580-05-28,1888-10-02,Torrozelo,Torrozelo,,8012262,Torrozelo,,,,Portugal,,40.38181,-7.76229,PRT.10.12.23_1,Torrozelo,3.0,PRT.10.12_1,"Torrozelo, Torrozelo, Seia, Guarda",Torrozelo,geonames-pt,15.0,2024-11-10 14:52:30.637493,Q1566702
42,1568-10-06,1835-10-12,Azeitão,"Vila Nogueira, São Lourenço, Setúbal, Setúbal",,2261633,Vila Nogueira,São Lourenço,Setúbal,Setúbal,Portugal,,38.51667,-9.01667,PRT.17.12.3_1,São Lourenço,3.0,PRT.17.12_1,"Vila Nogueira, São Lourenço, Setúbal, Setúbal",Vila Nogueira,geonames-pt,30.0,2024-11-10 14:52:29.125949,*notfound*
42,1573-10-29,1894-10-02,Sandomil,Sandomil,,8012253,Sandomil,,,,Portugal,,40.35577,-7.77276,PRT.10.12.13_1,Sandomil,3.0,PRT.10.12_1,"Sandomil, Sandomil, Seia, Guarda",Sandomil,geonames-pt,15.0,2024-11-10 14:52:30.638438,Q2120448
42,1600-01-17,1893-11-10,Sesimbra,Sesimbra,,8010624,Sesimbra,,,,Portugal,,38.49486,-9.12011,PRT.17.11.2_1,Sesimbra (Castelo),3.0,PRT.17.11_1,"Sesimbra, Sesimbra (Castelo), Sesimbra, Setúbal",Sesimbra,geonames-pt,15.0,2024-11-10 14:52:30.500061,Q1006408
41,1591-10-26,1909-10-11,Abrunheira,Abrunheira,,8011851,Abrunheira,,,,Portugal,,40.1296,-8.74199,PRT.7.10.1_1,Abrunheira,3.0,PRT.7.10_1,"Abrunheira, Abrunheira, Montemor-o-Velho, Coimbra",Abrunheira,geonames-pt,15.0,2024-11-10 14:52:30.639369,Q331591
41,1667-11-08,1910-10-11,Albufeira,Albufeira,,8010512,Albufeira,,,,Portugal,,37.08341,-8.26139,PRT.9.1.1_1,Albufeira,3.0,PRT.9.1_1,"Albufeira, Albufeira, Albufeira, Faro",Albufeira,geonames-pt,20.0,2024-11-10 14:52:29.512121,Q373813
41,1537-01-29,1861-10-11,Pernes,Pernes,,8013048,Pernes,,,,Portugal,,39.39621,-8.67537,PRT.16.17.14_1,Pernes,3.0,PRT.16.17_1,"Pernes, Pernes, Santarém, Santarém",Pernes,geonames-pt,15.0,2024-11-10 14:52:30.640304,Q1749740
41,1564-02-26,1875-10-09,Pias,Pias,,8010921,Pias,,,,Portugal,,38.08487,-7.51936,PRT.3.13.3_1,Pias,3.0,PRT.3.13_1,"Pias, Pias, Serpa, Beja",Pias,geonames-pt,15.0,2024-11-10 14:52:30.641234,Q933938
40,1587-11-16,1892-10-14,Alverca,Alverca do Ribatejo,,8014802,Alverca do Ribatejo,,,,Portugal,,38.90493,-9.04289,PRT.12.16.2_1,Alverca do Ribatejo,3.0,PRT.12.16_1,"Alverca do Ribatejo, Alverca do Ribatejo, Vila Franca de Xira, Lisboa",Alverca do Ribatejo,geonames-pt,15.0,2024-11-10 14:52:30.642162,Q431690
40,1582-10-02,1907-10-04,Cadaval,Cadaval,,2270475,Cadaval,,,,Portugal,,39.24298,-9.10327,PRT.12.5.2_1,Cadaval,3.0,PRT.12.5_1,"Cadaval, Cadaval, Cadaval, Lisboa",Cadaval,geonames-pt,20.0,2024-11-10 14:52:29.358768,*notfound*
40,1586-10-01,1908-10-08,Cerdeira,Cerdeira,,8011761,Cerdeira,,,,Portugal,,40.25469,-7.93816,PRT.7.1.7_1,Cerdeira,3.0,PRT.7.1_1,"Cerdeira, Cerdeira, Arganil, Coimbra",Cerdeira,geonames-pt,15.0,2024-11-10 14:52:30.643090,Q3115
40,1540-10-11,1835-06-17,Ilha do Faial,Horta (Angústias),,8013523,Horta (Angústias),,,,Portugal,,38.52845,-28.63766,PRT.2.4.6_1,Horta (Angústias),3.0,PRT.2.4_1,"Horta (Angústias), Horta (Angústias), Horta, Azores",Horta (Angústias),geonames-pt,15.0,2024-11-10 14:52:30.644020,Q1999060
40,1540-10-17,1904-10-03,Monsanto,"Monsanto, Monsanto, Idanha-a-Nova, Castelo Branco",,8011710,Monsanto,Monsanto,Idanha-a-Nova,Castelo Branco,Portugal,,40.04146,-7.11468,PRT.6.5.8_1,Monsanto,3.0,PRT.6.5_1,"Monsanto, Monsanto, Idanha-a-Nova, Castelo Branco",Monsanto,geonames-pt,35.0,2024-11-10 14:52:29.091379,Q1637902
40,1616-10-25,1900-06-19,Paredes,Paredes,,2736657,Paredes,,,,Portugal,,41.20485,-8.33147,PRT.15.10.7_1,Castelões de Cepeda,3.0,PRT.15.10_1,"Paredes, Castelões de Cepeda, Paredes, Porto",Paredes,geonames-pt,15.0,2024-11-10 14:52:30.417446,*notfound*
40,1587-10-16,1847-10-04,Prado,Prado,,8013237,Prado,,,,Portugal,,42.11152,-8.27109,PRT.18.3.14_1,Prado,3.0,PRT.18.3_1,"Prado, Prado, Melgaço, Viana do Castelo",Prado,geonames-pt,15.0,2024-11-10 14:52:30.645880,Q2107394
40,1608-10-15,1909-10-15,Sendim,Sendim,,8011518,Sendim,,,,Portugal,,41.3796,-6.42412,PRT.5.6.15_1,Sendim,3.0,PRT.5.6_1,"Sendim, Sendim, Miranda do Douro, Bragança",Sendim,geonames-pt,15.0,2024-11-10 14:52:30.646978,Q2121828
40,1581-10-21,1876-06-06,Vieira,Vieira do Minho,,2732748,Vieira do Minho,,,,Portugal,,41.63292,-8.14252,PRT.4.11.20_1,Vieira do Minho,3.0,PRT.4.11_1,"Vieira do Minho, Vieira do Minho, Vieira do Minho, Braga",Vieira do Minho,geonames-pt,20.0,2024-11-10 14:52:29.359670,*notfound*
40,1578-11-08,1906-10-02,"Vila Cova de Sub-Avô, hoje Vila Cova de Alva",Vila Cova de Alva,,8014288,Vila Cova de Alva,,,,Portugal,,40.27298,-7.93974,PRT.7.1.18_1,Vila Cova de Alva,3.0,PRT.7.1_1,"Vila Cova de Alva, Vila Cova de Alva, Arganil, Coimbra",Vila Cova de Alva,geonames-pt,15.0,2024-11-10 14:52:30.647937,Q3687
40,1614-10-31,1893-10-13,Vilela,Vilela,,8010950,Vilela,,,,Portugal,,41.66574,-8.31842,PRT.4.1.24_1,Vilela,3.0,PRT.4.1_1,"Vilela, Vilela, Amares, Braga",Vilela,geonames-pt,15.0,2024-11-10 14:52:30.651686,Q1022570
39,1593-11-29,1909-10-12,Aldeia Nova do Cabo,Aldeia Nova do Cabo,,8014279,Aldeia Nova do Cabo,,,,Portugal,,40.15373,-7.53664,PRT.6.4.5_1,Aldeia Nova do Cabo,3.0,PRT.6.4_1,"Aldeia Nova do Cabo, Aldeia Nova do Cabo, Fundão, Castelo Branco",Aldeia Nova do Cabo,geonames-pt,15.0,2024-11-10 14:52:30.652619,Q1024751
39,1555-00-00,1814-10-15,Alhandra,Alhandra,,8012577,Alhandra,,,,Portugal,,38.92564,-9.00994,PRT.12.16.1_1,Alhandra,3.0,PRT.12.16_1,"Alhandra, Alhandra, Vila Franca de Xira, Lisboa",Alhandra,geonames-pt,15.0,2024-11-10 14:52:30.653556,Q1803660
39,1607-10-27,1912-07-08,Arcozelo,Arcozelo,,8010958,Arcozelo,,,,Portugal,,41.5451,-8.60892,PRT.4.2.11_1,Arcozelo,3.0,PRT.4.2_1,"Arcozelo, Arcozelo, Barcelos, Braga",Arcozelo,geonames-pt,15.0,2024-11-10 14:52:30.654488,Q637926
39,1714-10-22,1903-10-03,Fataunços,Fataunços,,8014012,Fataunços,,,,Portugal,,40.71965,-8.07853,PRT.20.24.5_1,Fataunços,3.0,PRT.20.24_1,"Fataunços, Fataunços, Vouzela, Viseu",Fataunços,geonames-pt,15.0,2024-11-10 14:52:30.655416,Q154241
39,1618-05-23,1898-10-12,Favaios,Favaios,,8013544,Favaios,,,,Portugal,,41.25708,-7.51443,PRT.19.1.7_1,Favaios,3.0,PRT.19.1_1,"Favaios, Favaios, Alijó, Vila Real",Favaios,geonames-pt,15.0,2024-11-10 14:52:30.656348,Q168690
39,1558-00-00,1908-10-13,Mértola,Mértola,,2266442,Mértola,,,,Portugal,,37.64304,-7.6611,PRT.3.9.4_1,Mértola,3.0,PRT.3.9_1,"Mértola, Mértola, Mértola, Beja",Mértola,geonames-pt,20.0,2024-11-10 14:52:29.362393,*notfound*
39,1613-06-19,1909-10-14,Paião,Paião,,8011827,Paião,,,,Portugal,,40.06967,-8.7877,PRT.7.5.12_1,Paião,3.0,PRT.7.5_1,"Paião, Paião, Figueira da Foz, Coimbra",Paião,geonames-pt,15.0,2024-11-10 14:52:30.657274,Q254859
39,1540-01-24,1909-10-13,Penedono,Penedono,,2736434,Penedono,,,,Portugal,,40.98875,-7.39386,PRT.20.12.6_1,Penedono,3.0,PRT.20.12_1,"Penedono, Penedono, Penedono, Viseu",Penedono,geonames-pt,20.0,2024-11-10 14:52:29.363675,Q861589
39,1564-06-11,1905-10-03,Ranhados,Ranhados,,8012185,Ranhados,,,,Portugal,,40.9966,-7.33735,PRT.10.9.15_1,Ranhados,3.0,PRT.10.9_1,"Ranhados, Ranhados, Mêda, Guarda",Ranhados,geonames-pt,15.0,2024-11-10 14:52:30.658204,Q2119966
39,1573-11-14,1910-10-13,Vimioso,Vimioso,,2732289,Vimioso,,,,Portugal,,41.58473,-6.52767,PRT.5.11.14_1,Vimioso,3.0,PRT.5.11_1,"Vimioso, Vimioso, Vimioso, Bragança",Vimioso,geonames-pt,20.0,2024-11-10 14:52:29.364663,*notfound*
38,1574-10-01,1764-10-01,Abiul,Abiul,,8012401,Abiul,,,,Portugal,,39.87328,-8.51256,PRT.11.15.1_1,Abiul,3.0,PRT.11.15_1,"Abiul, Abiul, Pombal, Leiria",Abiul,geonames-pt,15.0,2024-11-10 14:52:30.659132,Q321758
38,1564-10-01,1798-10-17,Carvalhal,Carvalhal,,8010968,Carvalhal,,,,Portugal,,41.50775,-8.63646,PRT.4.2.24_1,Carvalhal,3.0,PRT.4.2_1,"Carvalhal, Carvalhal, Barcelos, Braga",Carvalhal,geonames-pt,15.0,2024-11-10 14:52:30.660994,Q1046068
38,1540-03-07,1880-10-14,Castanheira,Castanheira,,8011557,Castanheira,,,,Portugal,,41.39696,-6.58815,PRT.5.8.6_1,Castanheira,3.0,PRT.5.8_1,"Castanheira, Castanheira, Mogadouro, Bragança",Castanheira,geonames-pt,15.0,2024-11-10 14:52:30.661919,Q112718
38,1564-10-18,1871-10-14,Castelo Novo,Castelo Novo,,8011690,Castelo Novo,,,,Portugal,,40.05032,-7.46212,PRT.6.4.13_1,Castelo Novo,3.0,PRT.6.4_1,"Castelo Novo, Castelo Novo, Fundão, Castelo Branco",Castelo Novo,geonames-pt,15.0,2024-11-10 14:52:30.663024,Q1024355
38,1589-03-23,1903-10-15,Lagares,Lagares,,8011865,Lagares,,,,Portugal,,40.40805,-7.86702,PRT.7.11.6_1,Lagares,3.0,PRT.7.11_1,"Lagares, Lagares, Oliveira do Hospital, Coimbra",Lagares,geonames-pt,15.0,2024-11-10 14:52:30.664156,Q33818865
38,1642-10-13,1869-10-15,Lavos,Lavos,,8011825,Lavos,,,,Portugal,,40.08748,-8.85053,PRT.7.5.8_1,Lavos,3.0,PRT.7.5_1,"Lavos, Lavos, Figueira da Foz, Coimbra",Lavos,geonames-pt,15.0,2024-11-10 14:52:30.665774,Q1339040
38,1603-10-11,1898-10-11,Sangalhos,Sangalhos,,8010725,Sangalhos,,,,Portugal,,40.48447,-8.47232,PRT.1.3.11_1,Sangalhos,3.0,PRT.1.3_1,"Sangalhos, Sangalhos, Anadia, Aveiro",Sangalhos,geonames-pt,15.0,2024-11-10 14:52:30.666789,Q33851128
38,1538-10-08,1903-10-03,Trevões,Trevões,,8013903,Trevões,,,,Portugal,,41.09089,-7.43301,PRT.20.15.10_1,Trevões,3.0,PRT.20.15_1,"Trevões, Trevões, São João da Pesqueira, Viseu",Trevões,geonames-pt,15.0,2024-11-10 14:52:30.667753,Q93739
38,1592-01-11,1898-10-15,Vila Chã,Vila Chã,,8010851,Vila Chã,,,,Portugal,,40.85547,-8.40207,PRT.1.19.8_1,Vila Chã,3.0,PRT.1.19_1,"Vila Chã, Vila Chã, Vale de Cambra, Aveiro",Vila Chã,geonames-pt,15.0,2024-11-10 14:52:30.668702,Q2048278
37,1537-02-07,1801-10-16,Algarve,Faro,,2268339,Faro,,,,Portugal,,37.01869,-7.92716,PRT.9.5.4_1,Faro (Sé),3.0,PRT.9.5_1,"Faro, Faro (Sé), Faro, Faro",Faro,geonames-pt,20.0,2024-11-10 14:52:29.255037,Q159457
37,1572-03-15,1910-10-18,Angra do Heroísmo,Angra do Heroísmo,,8010691,Angra do Heroísmo,,,,Portugal,,38.69526,-27.24913,PRT.2.1.18_1,Terra Chã,3.0,PRT.2.1_1,"Angra do Heroísmo, Terra Chã, Angra do Heroísmo, Azores",Angra do Heroísmo,geonames-pt,15.0,2024-11-10 14:52:30.492814,Q193677
37,1586-10-01,1801-10-08,Belver,"Belver, Belver, Gavião, Portalegre",,8012622,Belver,Belver,Gavião,Portalegre,Portugal,,39.52124,-7.92817,PRT.14.9.2_1,Belver,3.0,PRT.14.9_1,"Belver, Belver, Gavião, Portalegre",Belver,geonames-pt,35.0,2024-11-10 14:52:29.087665,Q2257845
37,1591-10-19,1901-10-14,Canelas,Canelas,,8010732,Canelas,,,,Portugal,,40.95811,-8.20645,PRT.1.4.6_1,Canelas,3.0,PRT.1.4_1,"Canelas, Canelas, Arouca, Aveiro",Canelas,geonames-pt,15.0,2024-11-10 14:52:30.669642,Q2258051
37,1540-09-30,1909-10-02,"Funchal, Ilha da Madeira","Funchal, Imaculado Coração de Maria, Funchal, Ilha da Madeira (Madeira)",,2267827,Funchal,Imaculado Coração de Maria,Funchal,Ilha da Madeira (Madeira),Portugal,,32.66568,-16.92547,PRT.13.3.10_1,São Roque,3.0,PRT.13.3_1,"Funchal, São Roque, Funchal, Madeira",Funchal,geonames-pt,20.0,2024-11-10 14:52:29.257845,Q25444
37,1579-11-06,1895-10-15,Mourão,Mourão,,2265680,Mourão,,,,Portugal,,38.38356,-7.34189,PRT.8.8.3_1,Mourão,3.0,PRT.8.8_1,"Mourão, Mourão, Mourão, Évora",Mourão,geonames-pt,20.0,2024-11-10 14:52:29.365600,*notfound*
37,1591-12-07,1900-10-04,Parada,Parada,,8011405,Parada,,,,Portugal,,41.28527,-6.87665,PRT.5.1.8_1,Parada,3.0,PRT.5.1_1,"Parada, Parada, Alfândega da Fé, Bragança",Parada,geonames-pt,15.0,2024-11-10 14:52:30.670588,Q1024303
37,1702-10-01,1872-10-09,Póvoa de Lanhoso,Póvoa de Lanhoso,,8010454,Póvoa de Lanhoso,,,,Portugal,,41.58825,-8.26447,PRT.4.9.20_1,Póvoa de Lanhoso (Nossa Senhora,3.0,PRT.4.9_1,"Póvoa de Lanhoso, Póvoa de Lanhoso (Nossa Senhora, Póvoa de Lanhoso, Braga",Póvoa de Lanhoso,geonames-pt,15.0,2024-11-10 14:52:30.501008,Q551689
37,1579-10-02,1853-10-31,Unhão,Unhão,,8012704,Unhão,,,,Portugal,,41.31666,-8.23562,PRT.15.3.26_1,Unhão,3.0,PRT.15.3_1,"Unhão, Unhão, Felgueiras, Porto",Unhão,geonames-pt,15.0,2024-11-10 14:52:30.671521,Q2256461
36,1564-11-10,1907-10-04,Aguiar da Beira,Aguiar da Beira,,2743283,Aguiar da Beira,,,,Portugal,,40.81726,-7.54431,PRT.10.1.1_1,Aguiar da Beira,3.0,PRT.10.1_1,"Aguiar da Beira, Aguiar da Beira, Aguiar da Beira, Guarda",Aguiar da Beira,geonames-pt,20.0,2024-11-10 14:52:29.366575,Q175373
36,1676-10-17,1910-11-07,Fafe,Fafe,,2739788,Fafe,,,,Portugal,,41.45083,-8.17258,PRT.4.7.11_1,Fafe,3.0,PRT.4.7_1,"Fafe, Fafe, Fafe, Braga",Fafe,geonames-pt,20.0,2024-11-10 14:52:29.367502,Q49282921
36,1711-01-18,1910-10-01,"Funchal, Madeira","Funchal, Imaculado Coração de Maria, Funchal, Ilha da Madeira (Madeira)",,2267827,Funchal,Imaculado Coração de Maria,Funchal,Ilha da Madeira (Madeira),Portugal,,32.66568,-16.92547,PRT.13.3.10_1,São Roque,3.0,PRT.13.3_1,"Funchal, São Roque, Funchal, Madeira",Funchal,geonames-pt,20.0,2024-11-10 14:52:29.258754,Q25444
36,1585-10-02,1839-10-18,Minde,Minde,,8012975,Minde,,,,Portugal,,39.53366,-8.67557,PRT.16.2.6_1,Minde,3.0,PRT.16.2_1,"Minde, Minde, Alcanena, Santarém",Minde,geonames-pt,15.0,2024-11-10 14:52:30.672454,Q1717071
36,1573-01-26,1772-01-07,Miranda,Miranda,,8013186,Miranda,,,,Portugal,,41.83145,-8.50939,PRT.18.1.24_1,Miranda,3.0,PRT.18.1_1,"Miranda, Miranda, Arcos de Valdevez, Viana do Castelo",Miranda,geonames-pt,15.0,2024-11-10 14:52:30.673391,Q998201
36,1603-03-09,1907-10-14,Nogueira,Nogueira,,8011060,Nogueira,,,,Portugal,,41.52634,-8.40332,PRT.4.3.38_1,Nogueira,3.0,PRT.4.3_1,"Nogueira, Nogueira, Braga, Braga",Nogueira,geonames-pt,15.0,2024-11-10 14:52:30.674327,Q1995493
36,1556-02-01,1898-10-08,Paranhos,Paranhos,,8010940,Paranhos,,,,Portugal,,41.67026,-8.3448,PRT.4.1.16_1,Paranhos,3.0,PRT.4.1_1,"Paranhos, Paranhos, Amares, Braga",Paranhos,geonames-pt,15.0,2024-11-10 14:52:30.675263,Q1022600
36,1559-10-01,1887-10-09,Vila Cova,Vila Cova,,8011032,Vila Cova,,,,Portugal,,41.54994,-8.708,PRT.4.2.84_1,Vila Cova,3.0,PRT.4.2_1,"Vila Cova, Vila Cova, Barcelos, Braga",Vila Cova,geonames-pt,15.0,2024-11-10 14:52:30.676196,Q1651412
35,1570-00-00,1893-10-12,Almodôvar,Almodôvar,,2271912,Almodôvar,,,,Portugal,,37.51279,-8.06008,PRT.3.2.2_1,Almodôvar,3.0,PRT.3.2_1,"Almodôvar, Almodôvar, Almodôvar, Beja",Almodôvar,geonames-pt,20.0,2024-11-10 14:52:29.368432,*notfound*
35,1592-10-12,1824-10-30,Arazede,Arazede,,8011852,Arazede,,,,Portugal,,40.27287,-8.67783,PRT.7.10.2_1,Arazede,3.0,PRT.7.10_1,"Arazede, Arazede, Montemor-o-Velho, Coimbra",Arazede,geonames-pt,15.0,2024-11-10 14:52:30.677127,Q31886899
35,1537-05-28,1908-10-15,Cabeço de Vide,Cabeço de Vide,,6930693,Cabeço de Vide,,,,Portugal,,39.10957,-7.58805,PRT.14.8.1_1,Cabeço de Vide,3.0,PRT.14.8_1,"Cabeço de Vide, Cabeço de Vide, Fronteira, Portalegre",Cabeço de Vide,geonames-pt,15.0,2024-11-10 14:52:30.678059,Q2258653
35,1613-10-14,1908-10-15,Oliveira do Bairro,Oliveira do Bairro,,2737042,Oliveira do Bairro,,,,Portugal,,40.5146,-8.49386,PRT.1.13.4_1,Oliveira do Bairro,3.0,PRT.1.13_1,"Oliveira do Bairro, Oliveira do Bairro, Oliveira do Bairro, Aveiro",Oliveira do Bairro,geonames-pt,20.0,2024-11-10 14:52:29.369437,Q49287660
35,1537-12-18,1899-10-02,Pederneira,"Pederneira, Nazaré, Nazaré, Leiria",,2265067,Pederneira,Nazaré,Nazaré,Leiria,Portugal,,39.59878,-9.06297,PRT.11.11.2_1,Nazaré,3.0,PRT.11.11_1,"Pederneira, Nazaré, Nazaré, Leiria",Pederneira,geonames-pt,30.0,2024-11-10 14:52:29.110754,*notfound*
35,1700-10-01,1910-10-27,Póvoa de Varzim,Póvoa de Varzim,,2735787,Póvoa de Varzim,,,,Portugal,,41.38344,-8.76364,PRT.15.13.10_1,Póvoa de Varzim,3.0,PRT.15.13_1,"Póvoa de Varzim, Póvoa de Varzim, Póvoa de Varzim, Porto",Póvoa de Varzim,geonames-pt,20.0,2024-11-10 14:52:29.370415,Q200459
35,1706-03-17,1908-10-07,Tortosendo,Tortozendo,,2733465,Tortozendo,,,,Portugal,,40.23587,-7.52804,PRT.6.3.26_1,Tortosendo,3.0,PRT.6.3_1,"Tortozendo, Tortosendo, Covilhã, Castelo Branco",Tortozendo,geonames-pt,10.0,2024-11-10 14:52:32.947363,*notfound*
35,1578-11-08,1784-10-12,Vila Cova à Coelheira,Vila Cova à Coelheira,,2732667,Vila Cova à Coelheira,,,,Portugal,,40.38339,-7.73267,PRT.10.12.29_1,Vila Cova À Coelheira,3.0,PRT.10.12_1,"Vila Cova à Coelheira, Vila Cova À Coelheira, Seia, Guarda",Vila Cova à Coelheira,geonames-pt,10.0,2024-11-10 14:52:32.948234,*notfound*
34,1617-11-18,1899-10-03,Belmonte,Belmonte,,2742285,Belmonte,,,,Portugal,,40.3593,-7.34869,PRT.6.1.1_1,Belmonte,3.0,PRT.6.1_1,"Belmonte, Belmonte, Belmonte, Castelo Branco",Belmonte,geonames-pt,20.0,2024-11-10 14:52:29.372249,*notfound*
34,1620-11-20,1862-06-01,Cumieira,Cumieira,,8013674,Cumieira,,,,Portugal,,41.24718,-7.76918,PRT.19.11.2_1,Cumieira,3.0,PRT.19.11_1,"Cumieira, Cumieira, Santa Marta de Penaguião, Vila Real",Cumieira,geonames-pt,15.0,2024-11-10 14:52:30.680243,Q799183
34,1537-12-18,1908-10-02,Odemira,Odemira,,8010442,Odemira,,,,Portugal,,37.62724,-8.573,PRT.3.11.6_1,Odemira (Santa Maria),3.0,PRT.3.11_1,"Odemira, Odemira (Santa Maria), Odemira, Beja",Odemira,geonames-pt,15.0,2024-11-10 14:52:30.501952,Q551669
34,1564-10-18,1880-10-15,Oliveirinha,Oliveirinha,,8010752,Oliveirinha,,,,Portugal,,40.59787,-8.5961,PRT.1.5.9_1,Oliveirinha,3.0,PRT.1.5_1,"Oliveirinha, Oliveirinha, Aveiro, Aveiro",Oliveirinha,geonames-pt,15.0,2024-11-10 14:52:30.681200,Q2260120
34,1581-10-06,1814-10-08,Outeiro,Outeiro,,8011097,Outeiro,,,,Portugal,,41.50929,-8.02968,PRT.4.4.10_1,Outeiro,3.0,PRT.4.4_1,"Outeiro, Outeiro, Cabeceiras de Basto, Braga",Outeiro,geonames-pt,15.0,2024-11-10 14:52:30.682142,Q1023439
34,1609-10-10,1758-10-01,Paiva,Castelo de Paiva,,2741001,Castelo de Paiva,,,,Portugal,,41.06301,-8.2647,PRT.1.6.2_1,Fornos,3.0,PRT.1.6_1,"Castelo de Paiva, Fornos, Castelo de Paiva, Aveiro",Castelo de Paiva,geonames-pt,15.0,2024-11-10 14:52:30.418402,*notfound*
34,1540-10-22,1907-10-08,Silves,Silves,,2262926,Silves,,,,Portugal,,37.18921,-8.43822,PRT.9.13.7_1,Silves,3.0,PRT.9.13_1,"Silves, Silves, Silves, Faro",Silves,geonames-pt,20.0,2024-11-10 14:52:29.373155,Q49290226
34,1540-01-12,1907-10-10,Sobral,Sobral,,8011727,Sobral,,,,Portugal,,39.94933,-8.01097,PRT.6.6.11_1,Sobral,3.0,PRT.6.6_1,"Sobral, Sobral, Oleiros, Castelo Branco",Sobral,geonames-pt,15.0,2024-11-10 14:52:30.683085,Q1024339
34,1637-11-12,1908-10-08,Valdigem,Valdigem,,8013812,Valdigem,,,,Portugal,,41.13256,-7.76376,PRT.20.5.22_1,Valdigem,3.0,PRT.20.5_1,"Valdigem, Valdigem, Lamego, Viseu",Valdigem,geonames-pt,15.0,2024-11-10 14:52:30.684020,Q64288
33,1608-10-31,1898-10-03,Cartaxo,Cartaxo,,2270023,Cartaxo,,,,Portugal,,39.16022,-8.78741,PRT.16.6.1_1,Cartaxo,3.0,PRT.16.6_1,"Cartaxo, Cartaxo, Cartaxo, Santarém",Cartaxo,geonames-pt,20.0,2024-11-10 14:52:29.374986,Q49281766
33,1621-10-13,1900-10-04,Cortiça,"Cortiça, São Martinho da Cortiça, Arganil, Coimbra",,2740502,Cortiça,São Martinho da Cortiça,Arganil,Coimbra,Portugal,,40.27632,-8.16094,PRT.7.1.14_1,São Martinho da Cortiça,3.0,PRT.7.1_1,"Cortiça, São Martinho da Cortiça, Arganil, Coimbra",Cortiça,geonames-pt,30.0,2024-11-10 14:52:29.127770,*notfound*
33,1600-11-02,1882-10-02,Farminhão,Farminhão,,8013992,Farminhão,,,,Portugal,,40.61307,-8.02165,PRT.20.23.13_1,Farminhão,3.0,PRT.20.23_1,"Farminhão, Farminhão, Viseu, Viseu",Farminhão,geonames-pt,15.0,2024-11-10 14:52:30.684951,Q168295
33,1665-10-29,1908-10-02,Gavião,Gavião,,2267681,Gavião,,,,Portugal,,39.46443,-7.93449,PRT.14.9.4_1,Gavião,3.0,PRT.14.9_1,"Gavião, Gavião, Gavião, Portalegre",Gavião,geonames-pt,20.0,2024-11-10 14:52:29.375886,*notfound*
33,1585-10-14,1909-10-09,Mesquitela,"Mesquitela, Mesquitela, Celorico da Beira, Guarda",,8012081,Mesquitela,Mesquitela,Celorico da Beira,Guarda,Portugal,,40.58569,-7.47313,PRT.10.3.13_1,Mesquitela,3.0,PRT.10.3_1,"Mesquitela, Mesquitela, Celorico da Beira, Guarda",Mesquitela,geonames-pt,35.0,2024-11-10 14:52:29.067385,Q24201
33,1581-10-03,1912-08-12,Mira,Mira,,2737651,Mira,,,,Portugal,,40.42892,-8.73746,PRT.7.8.2_1,Mira,3.0,PRT.7.8_1,"Mira, Mira, Mira, Coimbra",Mira,geonames-pt,20.0,2024-11-10 14:52:29.376784,*notfound*
33,1537-12-18,1898-10-08,Mogofores,Mogofores,,8010723,Mogofores,,,,Portugal,,40.45334,-8.46492,PRT.1.3.7_1,Mogofores,3.0,PRT.1.3_1,"Mogofores, Mogofores, Anadia, Aveiro",Mogofores,geonames-pt,15.0,2024-11-10 14:52:30.685899,Q2128194
33,1592-10-01,1877-10-02,Muxagata,"Muxagata, Muxagata, Fornos de Algodres, Guarda",,8012109,Muxagata,Muxagata,Fornos de Algodres,Guarda,Portugal,,40.65351,-7.45648,PRT.10.5.11_1,Muxagata,3.0,PRT.10.5_1,"Muxagata, Muxagata, Fornos de Algodres, Guarda",Muxagata,geonames-pt,35.0,2024-11-10 14:52:29.068328,Q32700
33,1585-10-02,1897-10-12,Passos,Passos,,8011099,Passos,,,,Portugal,,41.48931,-8.04653,PRT.4.4.12_1,Passos,3.0,PRT.4.4_1,"Passos, Passos, Cabeceiras de Basto, Braga",Passos,geonames-pt,15.0,2024-11-10 14:52:30.686828,Q1023417
33,1659-10-10,1904-10-12,Penajóia,Penajóia,,8013806,Penajóia,,,,Portugal,,41.13911,-7.8527,PRT.20.5.17_1,Penajóia,3.0,PRT.20.5_1,"Penajóia, Penajóia, Lamego, Viseu",Penajóia,geonames-pt,15.0,2024-11-10 14:52:30.687760,Q64774
33,1677-01-08,1896-10-13,Sande,Sande,,8011377,Sande,,,,Portugal,,41.70079,-8.39419,PRT.4.13.48_1,Sande,3.0,PRT.4.13_1,"Sande, Sande, Vila Verde, Braga",Sande,geonames-pt,15.0,2024-11-10 14:52:30.688695,Q577070
33,1653-10-14,1888-10-15,Santa Eulália,Santa Eulália,,8010741,Santa Eulália,,,,Portugal,,40.92344,-8.27752,PRT.1.4.16_1,Santa Eulália,3.0,PRT.1.4_1,"Santa Eulália, Santa Eulália, Arouca, Aveiro",Santa Eulália,geonames-pt,15.0,2024-11-10 14:52:30.689630,Q1854995
33,1612-10-22,1900-10-04,Silva Escura,Silva Escura,,8010838,Silva Escura,,,,Portugal,,40.76179,-8.38614,PRT.1.17.8_1,Silva Escura,3.0,PRT.1.17_1,"Silva Escura, Silva Escura, Sever do Vouga, Aveiro",Silva Escura,geonames-pt,15.0,2024-11-10 14:52:30.690559,Q2257924
33,1601-10-29,1837-10-18,São Silvestre,São Silvestre,,8011805,São Silvestre,,,,Portugal,,40.22841,-8.53118,PRT.7.3.25_1,São Silvestre,3.0,PRT.7.3_1,"São Silvestre, São Silvestre, Coimbra, Coimbra",São Silvestre,geonames-pt,15.0,2024-11-10 14:52:30.691489,Q729968
33,1594-10-11,1861-10-11,Vila de Rei,Vila de Rei,,2261649,Vila de Rei,,,,Portugal,,39.67604,-8.14577,PRT.6.10.3_1,Vila de Rei,3.0,PRT.6.10_1,"Vila de Rei, Vila de Rei, Vila de Rei, Castelo Branco",Vila de Rei,geonames-pt,20.0,2024-11-10 14:52:29.377685,*notfound*
32,1540-00-00,1771-05-24,,,,,,,,,Portugal,,,,,,,,,,,,,
32,1561-10-01,1695-10-01,Ilha,"Ilha, Ilha, Pombal, Leiria",,8012416,Ilha,Ilha,Pombal,Leiria,Portugal,,39.91704,-8.76348,PRT.11.15.7_1,Ilha,3.0,PRT.11.15_1,"Ilha, Ilha, Pombal, Leiria",Ilha,geonames-pt,35.0,2024-11-10 14:52:29.108901,Q1025541
32,1654-01-04,1890-10-15,Lageosa,Lageosa,,,Lageosa,,,,Portugal,,,,,,,,,,,,,
32,1609-10-09,1879-07-24,Loureiro,Loureiro,,8010816,Loureiro,,,,Portugal,,40.80545,-8.52282,PRT.1.12.4_1,Loureiro,3.0,PRT.1.12_1,"Loureiro, Loureiro, Oliveira de Azeméis, Aveiro",Loureiro,geonames-pt,15.0,2024-11-10 14:52:30.694292,Q1074607
32,1537-00-00,1884-10-15,Oleiros,Oleiros,,2265450,Oleiros,,,,Portugal,,39.91893,-7.9137,PRT.6.6.8_1,Oleiros,3.0,PRT.6.6_1,"Oleiros, Oleiros, Oleiros, Castelo Branco",Oleiros,geonames-pt,20.0,2024-11-10 14:52:29.378650,*notfound*
32,1574-03-13,1902-10-10,Oliveira de Frades,Oliveira de Frades,,2737043,Oliveira de Frades,,,,Portugal,,40.73357,-8.17481,PRT.20.10.4_1,Oliveira de Frades,3.0,PRT.20.10_1,"Oliveira de Frades, Oliveira de Frades, Oliveira de Frades, Viseu",Oliveira de Frades,geonames-pt,20.0,2024-11-10 14:52:29.379841,Q861584
32,1578-11-03,1898-10-12,Quintela,Quintela,,8013940,Quintela,,,,Portugal,,40.85647,-7.58901,PRT.20.18.14_1,Quintela,3.0,PRT.20.18_1,"Quintela, Quintela, Sernancelhe, Viseu",Quintela,geonames-pt,15.0,2024-11-10 14:52:30.695221,Q111798
32,1682-10-01,1910-06-09,Salreu,Salreu,,8010775,Salreu,,,,Portugal,,40.74093,-8.5666,PRT.1.8.6_1,Salreu,3.0,PRT.1.8_1,"Salreu, Salreu, Estarreja, Aveiro",Salreu,geonames-pt,15.0,2024-11-10 14:52:30.587010,Q2259873
32,1668-10-17,1857-07-02,Vila Seca,Vila Seca,,8011033,Vila Seca,,,,Portugal,,41.50069,-8.68746,PRT.4.2.87_1,Vila Seca,3.0,PRT.4.2_1,"Vila Seca, Vila Seca, Barcelos, Braga",Vila Seca,geonames-pt,15.0,2024-11-10 14:52:30.696344,Q647331
31,1646-10-29,1907-10-15,Barrô,Barrô,,8010706,Barrô,,,,Portugal,,40.53249,-8.46622,PRT.1.1.5_1,Barrô,3.0,PRT.1.1_1,"Barrô, Barrô, Águeda, Aveiro",Barrô,geonames-pt,15.0,2024-11-10 14:52:30.697402,Q809130
31,1599-01-21,1830-10-12,Carvalho,Carvalho,,8011107,Carvalho,,,,Portugal,,41.3795,-8.0713,PRT.4.5.9_1,Carvalho,3.0,PRT.4.5_1,"Carvalho, Carvalho, Celorico de Basto, Braga",Carvalho,geonames-pt,15.0,2024-11-10 14:52:30.698414,Q9697971
