naturalidade,geocoder,id,address,city,country,importance,class,type,latitude,longitude,distance
Abrigada,osm,1933544852,"Abrigada, Alenquer, Lisboa, Portugal",Alenquer,Portugal,0.385,place,village,39.1450732,-9.0206761,128.51171949466118
Paio Mendes,osm,5527659136,"Paio Mendes, Nossa Senhora do Pranto, Ferreira do Zêzere, Santarém, Portugal",Ferreira do Zêzere,Portugal,0.45,place,hamlet,39.7428343,-8.2890559,52.894992920010125
"Santa Eulália, Vizela",osm,2197242,"Santa Eulália, Vizela, Braga, Portugal",Santa Eulália,Portugal,0.5823437491030712,boundary,administrative,41.35344765,-8.297967902896046,127.72382717243764
"Palmeira, Santo Tirso",osm,5937401,"Areias, Sequeiró, Lama e Palmeira, Santo Tirso, Areias, Porto, PT-13, Portugal",Santo Tirso,Portugal,0.5303615466364415,boundary,administrative,41.3625198,-8.474941549489573,128.3398202879364
Santa Eugénia,osm,4204532,"Santa Eugénia, Alijó, Vila Real, Portugal",Alijó,Portugal,0.4627191885788626,boundary,administrative,41.3482959,-7.4108596,152.95132767895987
"Santa Comba, Seia",osm,6334598,"Santa Comba, Seia, Guarda, Portugal",Seia,Portugal,0.6200379589897483,boundary,administrative,40.4499414,-7.7139441,66.23429244304042
Sanfins do Douro,osm,4204531,"Sanfins do Douro, Vila Real, Portugal",Sanfins do Douro,Portugal,0.5730818704926235,boundary,administrative,41.2931814,-7.5187469,142.85545856208122
"Sande, Lamego",osm,6354519,"Sande, Lamego, Viseu, Portugal",Lamego,Portugal,0.5700000000000001,boundary,administrative,41.1251725,-7.7856169,115.40549420533776
Samora Correia,osm,6458207,"Samora Correia, Benavente, Santarém, Portugal",Samora Correia,Portugal,0.494548847777872,boundary,administrative,38.9348747,-8.8689911,146.32334205735094
Salvaterra do Extremo,osm,439767806,"Salvaterra do Extremo, Monfortinho e Salvaterra de Extremo, Idanha-a-Nova, Castelo Branco, Portugal",Monfortinho e Salvaterra de Extremo,Portugal,0.5750000000000001,place,village,39.8837702,-6.9143475,133.9103261844328
Salto,osm,2198392,"Salto, Vila Real, Portugal",Salto,Portugal,0.3709581430769717,boundary,administrative,41.6404744,-7.9461425,164.1958071310753
Salgueiral,osm,1712482968,"Salgueiral, Luso, Mealhada, Aveiro, Portugal",Mealhada,Portugal,0.36,place,hamlet,40.3940024,-8.3589027,21.48902837900472
Safara,osm,1269410860,"Safara, Safara e Santo Aleixo da Restauração, Moura, Beja, Portugal",Safara e Santo Aleixo da Restauração,Portugal,0.385,place,village,38.1086912,-7.2184793,255.29870284166583
"Roma, Itália",osm,41485,"Roma, Roma Capitale, IT-RM, Lazio, Italia",Roma,Italia,0.8996107180689524,boundary,administrative,41.8933203,12.4829321,1763.360556834221
Rojão Pequeno,osm,5316738369,"Rojão Pequeno, Pinheiro de Ázere, Santa Comba Dão, Viseu, Portugal",Santa Comba Dão,Portugal,0.45,place,hamlet,40.3712829,-8.1142831,32.15034600523034
Roda,osm,1149236268,"Roda, Oleiros e Amieira, Oleiros, Castelo Branco, Portugal",Oleiros e Amieira,Portugal,0.385,place,village,39.8975317,-7.8591843,59.35649872041511
Rio das Mortes,osm,416645394,"Santo Antônio do Rio das Mortes Pequeno, São João del-Rei, Região Geográfica Imediata de São João del Rei, Minas Gerais, BR-MG, Região Sudeste, Brasil",São João del-Rei,Brasil,0.5750000000000001,place,village,-21.1888416,-44.3281922,7749.758427995727
Rio Seco,osm,5983504780,"Rio Seco, Reguengo do Fetal, Batalha, Leiria, Portugal",Batalha,Portugal,0.45,place,hamlet,39.6706458,-8.7865131,67.09376203890565
Rio Mau,osm,3169471090,"Rio Mau, Vila Verde, Braga, Portugal",Vila Verde,Portugal,0.5343526860531794,place,village,41.6924299,-8.5099921,165.0660332121323
Ribeiro,osm,8350495750,"Ribeiro, Aguda, Figueiró dos Vinhos, Leiria, Portugal",Figueiró dos Vinhos,Portugal,0.36,place,hamlet,39.9051225,-8.3146478,34.88484609658035
Santiago de Litém,osm,4379003101,"Santiago de Litém, Pombal, Leiria, Portugal",Pombal,Portugal,0.5750000000000001,place,village,39.8446856,-8.601581,42.97463997988184
Santa Maria do Bouro,osm,4169364,"Santa Maria do Bouro, Braga, Portugal",Santa Maria do Bouro,Portugal,0.6346137428457798,boundary,administrative,41.6595117,-8.2700105,161.7925644115967
Santa Maria do Freixo,osm,4318425932,"Ribeira do Freixo, Trancoso (São Pedro e Santa Maria) e Souto Maior, Trancoso, Guarda, Portugal",Trancoso (São Pedro e Santa Maria) e Souto Maior,Portugal,0.675,place,village,40.7917181,-7.2901561,116.10323492742582
Seixas,osm,6393409,"Seixas, Vila Nova de Foz Coa, Guarda, Portugal",Vila Nova de Foz Coa,Portugal,0.3830818704926234,boundary,administrative,41.1126511,-7.2505182,141.37075161283076
Sobral do Campo,osm,1727636258,"Sobral do Campo, Ninho do Açor e Sobral do Campo, Castelo Branco, Castelo Branco, Portugal",Ninho do Açor e Sobral do Campo,Portugal,0.5750000000000001,place,village,39.9995643,-7.5642825,77.0137134682629
Sobral Pichorro,osm,8851684979,"Sobral Pichorro, Sobral Pichorro e Fuinhas, Fornos de Algodres, Guarda, Portugal",Sobral Pichorro e Fuinhas,Portugal,0.4523442792274318,place,village,40.6914848,-7.4596176,98.02940075820196
Setã,osm,6816110198,"Vale de Seta, São Mamede, Leiria, Portugal",São Mamede,Portugal,0.25,place,hamlet,39.6386591,-8.7321273,68.35927405655931
Sernande,osm,3933505582,"Sernande, Porto, PT-13, Portugal",,Portugal,0.385,place,village,41.3410541,-8.2312098,126.95876247170592
Seras,osm,7456,"Cher, FR-18, Centre-Val de Loire, France métropolitaine, France",,France,0.5916301894068017,boundary,administrative,47.0248824,2.5753333606655704,1165.2166231264491
Sequeiros,osm,4043687413,"Sequeiros, Aguiar da Beira, Guarda, Portugal",Aguiar da Beira,Portugal,0.385,place,village,40.83907,-7.5095671,104.6432490731861
Seixo de Gatões,osm,6553459,"Seixo de Gatões, Montemor-o-Velho, Coimbra, Portugal",Montemor-o-Velho,Portugal,0.5652698587495282,boundary,administrative,40.238531,-8.6850563,22.3183445740982
Seixal,osm,5401739,"Seixal, Setúbal, Portugal",Seixal,Portugal,0.5517692782735519,boundary,administrative,38.6422246,-9.1072662,183.4060692118366
Santa Maria do Telhado,osm,7017621972,"Bairro do Telhado, Telhado, Santa Maria Maior, Chaves, Vila Real, Portugal",Chaves,Portugal,0.6599999999999999,place,neighbourhood,41.7491946,-7.4777681,188.90135676412623
Secarias,osm,280149141,"Secarias, Silveira, Silveira, Torres Vedras, Lisboa, Portugal",Silveira,Portugal,0.36,place,hamlet,39.1106425,-9.3582676,145.70092450095862
Sardoura,osm,6021197,"São Martinho de Sardoura, Castelo de Paiva, Aveiro, Portugal",São Martinho de Sardoura,Portugal,0.4499999999999999,boundary,administrative,41.0545027,-8.283864551132305,94.83108546940836
"Santos, São Paulo, Brasil",osm,298442,"Santos, Região Imediata de Santos, Região Metropolitana da Baixada Santista, Região Geográfica Intermediária de São Paulo, São Paulo, Região Sudeste, Brasil",Santos,Brasil,0.992026613307748,boundary,administrative,-23.960833,-46.333889,8118.245574011039
Santa Valha,osm,4197856,"Santa Valha, Valpaços, Vila Real, Portugal",Valpaços,Portugal,0.5067280415833832,boundary,administrative,41.6832427,-7.2712045,190.56480618683665
Santa Tecla,osm,5196629925,"Santa Tecla, São José de São Lázaro e São João do Souto, Braga, Braga, Portugal",Braga,Portugal,0.45,place,hamlet,41.5498768,-8.4165251,149.08385448404752
"Santa Marinha, Guarda",osm,1424200042,"Santa Marinha, Seia, Guarda, Portugal",Seia,Portugal,0.6100000000000001,place,town,40.4511109,-7.664593,70.13618654647705
Ribeira de Fráguas,osm,6018072,"Ribeira de Fráguas, Albergaria-a-Velha, Aveiro, Portugal",Albergaria-a-Velha,Portugal,0.6075723342298069,boundary,administrative,40.7410269,-8.4455598,59.27669745572776
Ribafria,osm,4359786180,"Ribafria, Alenquer, Lisboa, Portugal",Alenquer,Portugal,0.385,place,village,39.0622721,-9.0953794,139.52477566001522
Remelhe,osm,4058938,"Remelhe, Barcelos, Braga, Portugal",Barcelos,Portugal,0.4798815985584707,boundary,administrative,41.4938466,-8.6063138,143.6655129164796
Podence,osm,1462261664,"Podence, Macedo de Cavaleiros, Bragança, Portugal",Macedo de Cavaleiros,Portugal,0.385,place,village,41.5913228,-6.9274602,198.89870701618617
Pisão de Coja,osm,2378530782,"Pisão, Côja e Barril de Alva, Arganil, Coimbra, Portugal",Côja e Barril de Alva,Portugal,0.46,place,hamlet,40.2513804,-7.9669771,39.37023489402741
Pinhão,osm,4204530,"Pinhão, Vila Real, Portugal",Pinhão,Portugal,0.3997018831470392,boundary,administrative,41.1906071,-7.5449743,132.15338155708992
Picoto,osm,1583219194,"Picoto, Torres do Mondego, Coimbra, Coimbra, Portugal",Coimbra,Portugal,0.36,place,hamlet,40.213635,-8.3749914,4.39715170426616
Penha Longa,osm,3969676591,"Penhalonga, Penhalonga e Paços de Gaiolo, Marco de Canaveses, Porto, PT-13, Portugal",Penhalonga e Paços de Gaiolo,Portugal,0.4806663592762519,place,village,41.0977909,-8.1494137,101.60239402268706
Penalva de Alva,osm,1119674644,"Penalva de Alva, Penalva de Alva e São Sebastião da Feira, Oliveira do Hospital, Coimbra, Portugal",Penalva de Alva e São Sebastião da Feira,Portugal,0.5750000000000001,place,village,40.334965,-7.8302894,52.61041249225408
Pena Verde,osm,6406860,"Pena Verde, Aguiar da Beira, Guarda, Portugal",Aguiar da Beira,Portugal,0.55,boundary,administrative,40.7266641,-7.5055773,97.04523648740604
Pedralva,osm,4135206,"Pedralva, Braga, Braga, Portugal",Braga,Portugal,0.4675984769176688,boundary,administrative,41.5599098,-8.3208927,150.457026174935
Ponte de Barca,osm,25278429,"Ponte da Barca, Ponte da Barca, Vila Nova de Muía e Paço Vedro de Magalhães, Ponte da Barca, Viana do Castelo, Portugal","Ponte da Barca, Vila Nova de Muía e Paço Vedro de Magalhães",Portugal,0.7234178755862404,place,town,41.8076477,-8.416428,177.71339289176754
Paúl,osm,4187904724,"Paúl, São João do Monte e Mosteirinho, Tondela, Viseu, Portugal",Tondela,Portugal,0.36,place,hamlet,40.595387,-8.2637841,45.2280181507777
Paçô,osm,4648466,"Paçô, Arcos de Valdevez, Viana do Castelo, Portugal",Paçô,Portugal,0.3950481715152184,boundary,administrative,41.821709350000006,-8.409379654446141,179.27884288185788
"Paris, França",osm,7444,"Paris, Paris, Paris, Île-de-France, France métropolitaine, France",,France,0.9417101715588672,boundary,administrative,48.8588897,2.3200410217200766,1283.480565291372
Paredes de Coura,osm,5195993,"Paredes de Coura, Viana do Castelo, Portugal",Paredes de Coura,Portugal,0.7200642458473361,boundary,administrative,41.9133898,-8.56396258432304,189.81090057005744
"Paranhos, Guarda",osm,6334595,"Paranhos, Seia, Guarda, Portugal",Seia,Portugal,0.5440320544678041,boundary,administrative,40.4863691,-7.79452591880048,61.9497127271694
Parada de Pinhão,osm,4203942,"Parada de Pinhão, Sabrosa, Vila Real, Portugal",Sabrosa,Portugal,0.5723437491030712,boundary,administrative,41.3352262,-7.5894531,143.7812698596232
Parada de Cunhos,osm,4202137,"Parada de Cunhos, Vila Real, Vila Real, Portugal",Vila Real,Portugal,0.6327017194975908,boundary,administrative,41.2846703,-7.7604377,132.174738799272
Ponte,osm,4112720,"Guimarães, Braga, Portugal",Guimarães,Portugal,0.3823437491030711,boundary,administrative,41.46956665,-8.33518207495069,140.37128923467245
Reguengos de Monsaraz,osm,5402662,"Reguengos de Monsaraz, Évora, Portugal",Reguengos de Monsaraz,Portugal,0.7157251005532183,boundary,administrative,38.4243996,-7.5347109,212.34988528760604
Rabal,osm,5803687,"Rabal, Bragança, Bragança, Portugal",Bragança,Portugal,0.4510360708527612,boundary,administrative,41.8701416,-6.7534016,232.10278236028736
Regueira de Pontes,osm,6546915,"Regueira de Pontes, Leiria, Leiria, Portugal",Leiria,Portugal,0.6075723342298069,boundary,administrative,39.7997103,-8.8315102,56.99410524931548
Refóios,osm,1545854177,"Refoios, Zoio, Bragança, Bragança, Portugal",Bragança,Portugal,0.25,place,hamlet,41.7383632,-6.8931925,213.4174683376733
Refojos de Basto,osm,4175413,"Refojos de Basto, Outeiro e Painzela, Cabeceiras de Basto, Braga, Portugal",Cabeceiras de Basto,Portugal,0.3854406477123641,boundary,administrative,41.514117,-8.006427922348184,149.35917720752434
Rebordãos,osm,5803688,"Rebordãos, Bragança, Bragança, Portugal",Bragança,Portugal,0.4545859424692051,boundary,administrative,41.7404462,-6.8227788,217.2306876459861
Rebordães,osm,2478269708,"Rebordáns, Rebordáns, Tui, O Baixo Miño, Pontevedra, Galicia, ES-GA, España",Tui,España,0.275,place,suburb,42.0765715,-8.6592618,208.50292473086336
Rebordosa,osm,5928413,"Rebordosa, Paredes, Porto, PT-13, Portugal",Rebordosa,Portugal,0.4392608781983973,boundary,administrative,41.2202567,-8.4112601,112.48055640901504
Ratoeira,osm,6371568,"Ratoeira, Celorico da Beira, Guarda, Portugal",Celorico da Beira,Portugal,0.3845321115064417,boundary,administrative,40.6405126,-7.3530979,102.96964080028998
"Quintã, Aveiro",osm,1554325535,"Quintã, Loureiro, Oliveira de Azeméis, Aveiro, Portugal",Oliveira de Azeméis,Portugal,0.47,place,hamlet,40.8044138,-8.5449734,67.05511948632689
Porto Mós,osm,6548216,"Porto de Mós, Porto de Mós, Leiria, Portugal",Porto de Mós,Portugal,0.4096239553712498,boundary,administrative,39.6043279,-8.822832249972627,75.07000389265536
Quintã,osm,3191001783,"Quintã, Vila Real, Vila Real, Portugal",Vila Real,Portugal,0.4380698768979776,place,village,41.2934909,-7.8572094,129.81998734877052
Póvoa de Sobrinhos,osm,5859235129,"Póvoa de Sobrinhos, Rio de Loba, Viseu, Viseu, Portugal",Viseu,Portugal,0.55,place,hamlet,40.6485541,-7.8720539,67.8905421295554
Presegueda,osm,5163388180,"Presegueda, Vilarinho dos Freires, Peso da Régua, Vila Real, Portugal",Peso da Régua,Portugal,0.36,place,hamlet,41.1734534,-7.7463484,121.6892864662248
"Prado, Braga",osm,3164882725,"Prado (São Miguel), Vila Verde, Braga, Portugal",Vila Verde,Portugal,0.5552720245005685,place,village,41.6971512,-8.4333672,165.44005113262193
Poço do Canto,osm,6410303,"Poço do Canto, Mêda, Guarda, Portugal",Mêda,Portugal,0.5975805605530676,boundary,administrative,40.9988039,-7.2680092,131.6368007331587
Pousadas,osm,3427670607,"Pousadas, Barreiro de Besteiros e Tourigo, Tondela, Viseu, Portugal",Tondela,Portugal,0.36,place,hamlet,40.5010741,-8.2051438,37.6200876507783
Souropires,osm,6391643,"Souropires, Pinhel, Guarda, Portugal",Pinhel,Portugal,0.4013602540314963,boundary,administrative,40.7452093,-7.1263082,125.34827457497882
"Souto, Viseu",osm,6427539,"Souto, Penedono, Viseu, Portugal",Penedono,Portugal,0.4800583840406885,boundary,administrative,41.0192941,-7.3545603,127.86188595890364
Vale de Afonsinho,osm,3892540286,"Vale de Afonsinho, Figueira de Castelo Rodrigo, Guarda, Portugal",Figueira de Castelo Rodrigo,Portugal,0.5750000000000001,place,village,40.9025284,-7.0624368,138.90883672990634
"Vera Cruz, Aveiro",osm,3596762038,"Vera Cruz, Glória e Vera Cruz, Aveiro, Aveiro, Portugal",Aveiro,Portugal,0.5913117306116221,place,suburb,40.6434834,-8.6520504,52.08272889249002
Vera Cruz,osm,6439981,"Vera Cruz, Portel, Évora, Portugal",Portel,Portugal,0.55,boundary,administrative,38.2272929,-7.6822056,229.0229831726015
Vera,osm,346703,"Vera, Almería, Andalucía, ES-AN, España",Vera,España,0.5859398558340168,boundary,administrative,37.2475942,-1.8681961,657.87163282333
Vale do Forno,osm,416562285,"Bairro do Vale do Forno, Odivelas, Odivelas, Lisboa, Portugal",Odivelas,Portugal,0.55,place,neighbourhood,38.78240315,-9.177444748009115,170.90562650618128
Vale de Maceira,osm,5476732710,"Vale de Maceira, Lousã, Lousã e Vilarinho, Lousã, Coimbra, Portugal",Lousã e Vilarinho,Portugal,0.55,place,hamlet,40.0989857,-8.2639504,18.31983390627606
"Vale de Açores, Mortágua",osm,4260954592,"Vale de Açores, Mortágua, Vale de Remígio, Cortegaça e Almaça, Mortágua, Viseu, Portugal",Mortágua,Portugal,0.6599999999999999,place,hamlet,40.3889672,-8.2453285,25.34452046465709
Vale,osm,1835196730,"Vale, Vale, Arcos de Valdevez, Viana do Castelo, Portugal",Vale,Portugal,0.436855406087553,place,village,41.8384985,-8.3696615,181.2001204224844
Vila Conde,osm,3892769,"Vila do Conde, Vila do Conde, Porto, PT-13, Portugal",Vila do Conde,Portugal,0.6846556953180727,boundary,administrative,41.3580981,-8.7475631,130.63297095965
Valdujo,osm,6372254,"Valdujo, Trancoso, Guarda, Portugal",Trancoso,Portugal,0.4599999999999999,boundary,administrative,40.8351321,-7.2839746,119.26404877331896
"Valadares, Viana do Castelo",osm,3821458143,"Valadares, Monção, Viana do Castelo, Portugal",Monção,Portugal,0.685,place,village,42.077046,-8.3596756,207.7088543666872
Ulme,osm,6458303,"Ulme, Chamusca, Santarém, Portugal",Chamusca,Portugal,0.3752698587495282,boundary,administrative,39.3152078,-8.4305348,99.06335141507697
Ucanha,osm,2100118996,"Ucanha, Gouviães e Ucanha, Tarouca, Viseu, Portugal",Gouviães e Ucanha,Portugal,0.385,place,village,41.0457659,-7.7444528,109.50688503038128
Tões,osm,3575233410,"Tões, Armamar, Armamar, Viseu, Portugal",Armamar,Portugal,0.36,place,hamlet,41.0987304,-7.71735,115.70809969168724
"Trinta, Guarda",osm,432956794,"Trinta, Guarda, Guarda, Portugal",Guarda,Portugal,0.495,place,village,40.5037965,-7.3549759,96.75121825981562
Tresouras,osm,3930361662,"Tresouras, Loivos da Ribeira e Tresouras, Baião, Porto, PT-13, Portugal",Loivos da Ribeira e Tresouras,Portugal,0.3523278476590363,place,village,41.1531218,-7.9178557,113.46400473364784
Torgal,osm,8352126876,"Torgal, Campelo, Figueiró dos Vinhos, Leiria, Portugal",Figueiró dos Vinhos,Portugal,0.36,place,hamlet,39.9921522,-8.2767917,27.07809966157908
Viana de Caminha,osm,3911964,"Caminha, Viana do Castelo, Portugal",Caminha,Portugal,0.645733305798353,boundary,administrative,41.8491125,-8.772489708192628,184.63048122318813
Vila Cova-a-Coelheira,osm,6334608,"Vila Cova-à-Coelheira, Seia, Guarda, Portugal",Seia,Portugal,0.7233866831324339,boundary,administrative,40.37743865,-7.731901902351305,61.96408847436631
Tendais,osm,6354424,"Tendais, Cinfães, Viseu, Portugal",Cinfães,Portugal,0.3886886794586239,boundary,administrative,41.0142975,-8.0529355,95.00004095779028
"Vilar Seco, Nelas",osm,6366071,"Vilar Seco, Nelas, Viseu, Portugal",Nelas,Portugal,0.5744313097683034,boundary,administrative,40.5585471,-7.8645908,61.585767138109546
Adega,osm,8306585289,"Adega, Graça, Pedrógão Grande, Leiria, Portugal",Pedrógão Grande,Portugal,0.36,place,hamlet,39.9252277,-8.2195177,35.945870156658835
Água Revés,osm,4197865,"Água Revés e Crasto, Valpaços, Vila Real, Portugal",Valpaços,Portugal,0.521743055077702,boundary,administrative,41.5570198,-7.3491605,175.21081252384397
Zibreira,osm,6483237,"Zibreira, Torres Novas, Santarém, Portugal",Torres Novas,Portugal,0.4220198789366733,boundary,administrative,39.4843721,-8.6110195,81.82809670565513
Vimeiro,osm,6544464,"Vimeiro, Alcobaça, Leiria, Portugal",Alcobaça,Portugal,0.4599999999999999,boundary,administrative,39.48002375,-9.036727863774995,96.2027710563603
Vilarelhos,osm,5729039,"Vilarelhos, Alfândega da Fé, Bragança, Portugal",Alfândega da Fé,Portugal,0.4599999999999999,boundary,administrative,41.3478096,-7.0397157,172.42705989451414
Vilarandelo,osm,4197864,"Vilarandelo, Valpaços, Vila Real, Portugal",Valpaços,Portugal,0.4310731310973491,boundary,administrative,41.6634306,-7.3264197,186.3295406918081
Vila do Rei,osm,3736476984,"Vila Pouca, Moreira do Rei e Várzea Cova, Fafe, Braga, Portugal",Fafe,Portugal,0.55,place,hamlet,41.4681065,-8.0846202,142.929723526645
"Vila Flor, Moncorvo",osm,1242795855,"Felgueiras, Torre de Moncorvo, Bragança, Portugal",Torre de Moncorvo,Portugal,0.3759490106750474,place,village,41.1538464,-7.0132135,159.08975140735555
Vila da Rainha,osm,6519459,"Vila Nova da Rainha, Lisboa, Portugal",Vila Nova da Rainha,Portugal,0.5879976529248165,boundary,administrative,39.0390609,-8.9310062,136.77430156803837
"Vila Rica, Brasil",osm,333617,"Vila Rica, Região Geográfica Imediata de Confresa - Vila Rica, Região Geográfica Intermediária de Barra do Garças, Mato Grosso, BR-MT, Região Centro-Oeste, Brasil",Vila Rica,Brasil,0.7017421657985161,boundary,administrative,-10.013666,-51.118599,7086.04946374785
"Vila Rica do Ouro Preto, Brasil",osm,2035755491,"Ouro Preto, Ouro Preto, Região Geográfica Imediata de Santa Bárbara - Ouro Preto, Região Geográfica Intermediária de Belo Horizonte, Minas Gerais, BR-MG, Região Sudeste, Brasil",Ouro Preto,Brasil,0.6100000000000001,place,town,-20.385527,-43.5035214,7630.67690659031
Vila Rica do Ouro Preto,osm,2035755491,"Ouro Preto, Ouro Preto, Região Geográfica Imediata de Santa Bárbara - Ouro Preto, Região Geográfica Intermediária de Belo Horizonte, Minas Gerais, BR-MG, Região Sudeste, Brasil",Ouro Preto,Brasil,0.5,place,town,-20.385527,-43.5035214,7630.67690659031
Vila Nova de Basto,osm,3013380019,"Calendário, Vila Nova de Famalicão, Braga, Portugal",Vila Nova de Famalicão,Portugal,0.6274656328485748,place,village,41.399311,-8.5299946,132.64995333614706
Vila Franca do Deão,osm,2403589,"Vila Franca do Deão, Guarda, Guarda, Portugal",Guarda,Portugal,0.7370096664112032,boundary,administrative,40.6525959,-7.2432151,111.87837626251095
Tocha,osm,6549250,"Tocha, Cantanhede, Coimbra, Portugal",Tocha,Portugal,0.4599999999999999,boundary,administrative,40.3135812,-8.7522147,30.15015747032256
Telões,osm,5830064,"Telões, Amarante, Porto, PT-13, Portugal",Amarante,Portugal,0.4050646030836139,boundary,administrative,41.3096543,-8.1007731,125.44481797206136
São  Martinho de Salreu,osm,1477607126,"São Martinho, Cadaval, Salreu, Estarreja, Aveiro, Portugal",Estarreja,Portugal,0.56,place,neighbourhood,40.7366008,-8.5636776,59.91057868632863
São Martinho de Seia,osm,1424200483,"São Martinho, Seia, Guarda, Portugal",Seia,Portugal,0.5850000000000001,place,village,40.4427712,-7.6706693,69.3092698195
São Martinho de Sande,osm,4112836,"Guimarães, Braga, Portugal",Guimarães,Portugal,0.6692995550804912,boundary,administrative,41.4940208,-8.36445584273577,142.9723404075878
"São Martinho de Anta, Vila Real",osm,3192039412,"São Martinho de Anta, Vila Real, Portugal",São Martinho de Anta,Portugal,0.8738112565126804,place,town,41.2663646,-7.619655,135.8937872334137
São Martinho da Cortiça,osm,6549075,"São Martinho da Cortiça, Arganil, Coimbra, Portugal",Arganil,Portugal,0.6303615466364415,boundary,administrative,40.2680384,-8.1334836,25.78646289796812
São João de Loureiro,osm,2716130954,"Loureiro, Calhandriz, Alhandra, São João dos Montes e Calhandriz, Vila Franca de Xira, Lisboa, Portugal","Alhandra, São João dos Montes e Calhandriz",Portugal,0.6599999999999999,place,hamlet,38.9319607,-9.0659849,151.91140972807264
"São Jorge, Feira",osm,2682307071,"Caldas de São Jorge, Santa Maria da Feira, Aveiro, Portugal",Santa Maria da Feira,Portugal,0.6139400466797944,place,town,40.9663636,-8.5044593,84.53868969965156
São Fagundo,osm,5476733876,"São Fagundo, Tábua, Tábua, Coimbra, Portugal",Tábua,Portugal,0.45,place,hamlet,40.3683893,-8.0312205,38.03177339884748
"São Martinho, Coimbra",osm,6542653565,"São Martinho, Valde de Godinho, Góis, Góis, Coimbra, Portugal",Góis,Portugal,0.56,place,quarter,40.1759687,-8.0939134,28.49381237355116
São Miguel do Couto,osm,5217964154,"São Miguel do Couto, Santo Tirso, Couto (Santa Cristina e São Miguel) e Burgães, Trofa, Porto, PT-13, Portugal",Trofa,Portugal,0.65,place,hamlet,41.331701,-8.4618545,124.88725941428424
"Teixoso, Covilhã",osm,2007054946,"Teixoso, Covilhã, Castelo Branco, Portugal",Covilhã,Portugal,0.5140287400552381,place,town,40.3134342,-7.4580288,83.18090846901819
Teivas,osm,2921885776,"Teivas, São João de Lourosa, Viseu, Viseu, Portugal",Viseu,Portugal,0.36,place,hamlet,40.6154155,-7.924366,62.17245457877375
Taveira,osm,416643513,"Vila Taveira, Niquelândia, Região Geográfica Imediata de Uruaçu - Niquelândia, Região Geográfica Intermediária de Porangatu-Uruaçu, Goiás, BR-GO, Região Centro-Oeste, Brasil",Niquelândia,Brasil,0.375,place,village,-14.7728712,-48.6242908,7370.661758162737
Tagilde,osm,3408738676,"Tagilde, Vizela, Braga, Portugal",Vizela,Portugal,0.2769036315150678,place,village,41.3773412,-8.2785398,130.51410835081268
Taboado,osm,5627230902,"Taboado, Pedro Teixeira, Região Geográfica Imediata de Juiz de Fora, Minas Gerais, BR-MG, Região Sudeste, Brasil",Região Geográfica Imediata de Juiz de Fora,Brasil,0.36,place,hamlet,-21.7533411,-43.7453285,7776.041354795508
São Vicente de Louredo,osm,8138524423,"São Vicente, Lobão, Gião, Louredo e Guisande, Santa Maria da Feira, Aveiro, Portugal",Santa Maria da Feira,Portugal,0.65,place,hamlet,40.9804472,-8.4596755,85.88871735017429
São Vicente,osm,8421418,"São Vicente, Madeira, PT-30, Portugal",São Vicente,Portugal,0.6109789065133429,boundary,administrative,32.8022756,-17.0472397,1126.572281077303
São Simão,osm,3601467594,"São Simão, Tábua, Tábua, Coimbra, Portugal",Tábua,Portugal,0.45,place,hamlet,40.342028,-8.0472152,35.51451727630791
São Paio de Antas,osm,9046985086,"São Paio de Cima, Antas, Esposende, Braga, Portugal",Esposende,Portugal,0.6599999999999999,place,hamlet,41.5960294,-8.7606542,156.76409787005974
São Salvador de Real,osm,5163550284,"São Salvador, Ribeira de Pena (Salvador) e Santo Aleixo de Além-Tâmega, Ribeira de Pena, Vila Real, Portugal",Ribeira de Pena,Portugal,0.65,place,hamlet,41.5167076,-7.8000999,154.67644218943892
São Salvador,osm,5735867,"São Salvador, Mirandela, Bragança, Portugal",Mirandela,Portugal,0.5197110336847337,boundary,administrative,41.4472554,-7.1517511,174.66855393860197
"São Pedro, Vila Real",osm,5162703873,"São Pedro, Paradela, Contim e Fiães, Montalegre, Vila Real, Portugal",Montalegre,Portugal,0.65,place,hamlet,41.7912767,-7.8883177,181.6164771242718
São Pedro de Paus,osm,7643336855,"São Pedro de Souto, Paus, Resende, Viseu, Portugal",Resende,Portugal,0.6599999999999999,place,hamlet,41.0626298,-7.9080628,104.58831024169923
São Pedro de Loureiro,osm,9340640942,"Loureiro, São Félix, São Pedro do Sul, Viseu, Portugal",São Pedro do Sul,Portugal,0.56,place,hamlet,40.7995173,-8.043079,73.32390834951345
Panoias,osm,3152614074,"Panoias, Braga, Braga, Portugal",Braga,Portugal,0.4427017194975908,place,village,41.5725918,-8.4641669,151.6386569672847
Painho,osm,2865127869,"Painho, Sertã, Castelo Branco, Portugal",Sertã,Portugal,0.385,place,village,39.8927835,-8.1295252,43.13418251035478
Burgães,osm,493844953,"Burgães, Trofa, Porto, PT-13, Portugal",Trofa,Portugal,0.4099978272098044,place,suburb,41.3401777,-8.4491846,125.80722440685685
Caparrosa,osm,4196026986,"Caparrosa, Tondela, Viseu, Portugal",Tondela,Portugal,0.385,place,village,40.6242066,-8.0923718,54.25616106840606
Campo de Ourique,osm,6427490,"Campo de Ourique, Lisboa, Lisboa, Portugal",Lisboa,Portugal,0.6585225182049876,boundary,administrative,38.7182127,-9.16522274104384,177.1529772407026
Campia,osm,6476597,"Campia, Vouzela, Viseu, Portugal",Vouzela,Portugal,0.3932082617679252,boundary,administrative,40.6750158,-8.2167197,54.87508444805661
Calvelo,osm,5713279,"Calvelo, Ponte de Lima, Viana do Castelo, Portugal",Calvelo,Portugal,0.4456954929675735,boundary,administrative,41.678694,-8.547486254781832,163.7087723731119
Caldelas,osm,3170850632,"Caldelas, Braga, Portugal",Caldelas,Portugal,0.4080716579671534,place,town,41.668624,-8.3759934,162.32508903397567
Caldas de Vizela,osm,2197241,"Caldas de Vizela, Vizela, Braga, Portugal",Caldas de Vizela,Portugal,0.4881405465176059,boundary,administrative,41.3728321,-8.313292187069736,129.76774633415997
Cabo Verde,osm,6546135405,"Cabo Verde, Salvada e Quintos, Beja, Beja, Portugal",Beja,Portugal,0.3999999999999999,place,farm,37.8747307,-7.6826214,266.84108703879764
Bucelas,osm,6521222,"Bucelas, Loures, Lisboa, Portugal",Loures,Portugal,0.436855406087553,boundary,administrative,38.9016248,-9.118728,156.72481334458257
Carregal do Sal,osm,5331546,"Carregal do Sal, Viseu, Portugal",Carregal do Sal,Portugal,0.720199256633795,boundary,administrative,40.4334074,-8.0030203,43.84219333628683
Brunhedo,osm,8648352323,"Brunhedo, Fontelas, Peso da Régua, Vila Real, Portugal",Peso da Régua,Portugal,0.36,place,hamlet,41.1653319,-7.8208804,118.03298001980582
Britiande,osm,6354510,"Britiande, Lamego, Viseu, Portugal",Britiande,Portugal,0.4109387981495773,boundary,administrative,41.0632596,-7.7926335,109.10091236631068
Bouro,osm,4169365,"Santa Marta do Bouro, Amares, Braga, Portugal",Amares,Portugal,0.4023238541764916,boundary,administrative,41.6572815,-8.2902342,161.41613086326387
"Botão, Coimbra",osm,4345154698,"Botão, Coimbra, Coimbra, Portugal",Coimbra,Portugal,0.495,place,village,40.3066564,-8.4029644,11.191903271883394
Bornes de Aguiar,osm,4195167,"Bornes de Aguiar, Vila Real, Portugal",Bornes de Aguiar,Portugal,0.6116285608006754,boundary,administrative,41.5426745,-7.6031268,163.70105361196528
Borba de Godim,osm,3933505566,"Borba de Godim, Porto, PT-13, Portugal",,Portugal,0.5750000000000001,place,village,41.3219949,-8.1424064,126.06732598822674
"Bitarães, Porto",osm,3979080667,"Bitarães, Paredes, Paredes, Porto, PT-13, Portugal",Paredes,Portugal,0.5160833436228194,place,suburb,41.2256945,-8.3147825,113.46736734809562
Caramos,osm,3933505567,"Caramos, Porto, PT-13, Portugal",,Portugal,0.4258021943488055,place,village,41.3403403,-8.1701312,127.65083715349394
Carregueira,osm,3236155611,"Carregueira, Madalena e Beselga, Tomar, Santarém, Portugal",Tomar,Portugal,0.36,place,hamlet,39.63619,-8.4880009,63.64674808807129
Cem Soldos,osm,1809500252,"Cem Soldos, Madalena e Beselga, Tomar, Santarém, Portugal",Tomar,Portugal,0.45,place,hamlet,39.5866404,-8.4513807,68.96118948211307
Corredoura,osm,2552723581,"Corredoura, Canelas e Fermelã, Estarreja, Aveiro, Portugal",Estarreja,Portugal,0.36,place,hamlet,40.7002014,-8.5530164,55.77044377347151
"Congonhas do Campo, Brasil",osm,3919374612,"Fazenda Congonhas, Cristais, Região Geográfica Imediata de Campo Belo, Região Geográfica Intermediária de Varginha, Minas Gerais, BR-MG, Região Sudeste, Brasil",Cristais,Brasil,0.51,place,farm,-20.8737496,-45.4679786,7776.73488233075
Coentral,osm,1109290037,"Coentral, Castanheira de Pera, Leiria, Portugal",Castanheira de Pera,Portugal,0.3459683556024419,place,village,40.0637841,-8.1787216,26.429329866907484
Chão de Maçãs,osm,7925740719,"Chão de Maças, Seiça, Ourém, Santarém, Portugal",Ourém,Portugal,0.45,place,hamlet,39.6710303,-8.5009685,59.901078649737386
Chão de Maças,osm,7925740719,"Chão de Maças, Seiça, Ourém, Santarém, Portugal",Ourém,Portugal,0.55,place,hamlet,39.6710303,-8.5009685,59.901078649737386
Chorente,osm,4056553,"Chorente, Góios, Courel, Pedra Furada e Gueral, Barcelos, Braga, Portugal",Barcelos,Portugal,0.4175723342298069,boundary,administrative,41.4595743,-8.623353683411487,140.04504196798646
Cerdal,osm,4640266,"Cerdal, Valença, Viana do Castelo, Portugal",Cerdal,Portugal,0.4599999999999999,boundary,administrative,41.97299135,-8.606408602037119,196.66133778635225
"Celeirós, Vila Real",osm,4203939,"Celeirós, Sabrosa, Vila Real, Portugal",Sabrosa,Portugal,0.595649467985799,boundary,administrative,41.2428493,-7.5584439,136.3547760892018
Carril,osm,2400243990,"Carril, Abrunheira, Verride e Vila Nova da Barca, Montemor-o-Velho, Coimbra, Portugal",Montemor-o-Velho,Portugal,0.36,place,hamlet,40.1388301,-8.7338098,27.302115447257066
Cedovim,osm,6393401,"Cedovim, Vila Nova de Foz Coa, Guarda, Portugal",Cedovim,Portugal,0.3968347429646153,boundary,administrative,41.0272729,-7.3102777,131.15523810329776
Caves,osm,273421,"Caves, Narbonne, Aude, FR-11, Occitanie, FR-OCC, France métropolitaine, France",Narbonne,France,0.6349966539096711,boundary,administrative,42.9312356,2.9762529,997.0378297495
Castinçal,osm,5330150527,"Castinçal, São Pedro de Alva e São Paio de Mondego, Penacova, Coimbra, Portugal",Penacova,Portugal,0.36,place,hamlet,40.3156611,-8.1565333,25.882768126921004
Castelo de Paiva,osm,3603032,"Castelo de Paiva, Aveiro, Portugal",Castelo de Paiva,Portugal,0.7237370497815487,boundary,administrative,41.0212133,-8.308590266427904,90.91319733084332
Castelo de Ferreira,osm,2109822028,"Ferreira, Formariz e Ferreira, Paredes de Coura, Viana do Castelo, Portugal",Formariz e Ferreira,Portugal,0.5808404453228477,place,village,41.9305132,-8.5932664,191.873890220478
Carvalhosa,osm,5913207,"Carvalhosa, Paços de Ferreira, Porto, PT-13, Portugal",Carvalhosa,Portugal,0.4599999999999999,boundary,administrative,41.2999643,-8.3625207,121.44427078900712
"Carvalhal, Viseu",osm,2179426332,"Carvalhal, Pala, Mortágua, Viseu, Portugal",Mortágua,Portugal,0.47,place,hamlet,40.4610579,-8.2948255,30.289687776236395
Benlhevai,osm,5731118,"Benlhevai, Vila Flor, Bragança, Portugal",Vila Flor,Portugal,0.4599999999999999,boundary,administrative,41.3750041,-7.0889015,171.88797482483966
Cortiçô da Serra,osm,3466304207,"Cortiçô da Serra, Celorico da Beira, Guarda, Portugal",Celorico da Beira,Portugal,0.5750000000000001,place,village,40.5932662,-7.4347477,94.42925355759284
Alcântara,osm,6427487,"Alcântara, Lisboa, Lisboa, Portugal",Lisboa,Portugal,0.5317309888303401,boundary,administrative,38.71105735,-9.1828759210045,178.44457207292663
Algaça,osm,1601597986,"Algaça, Arrifana, Vila Nova de Poiares, Coimbra, Portugal",Vila Nova de Poiares,Portugal,0.36,place,hamlet,40.2037379,-8.2898687,11.59733732314565
Alfarela,osm,2559506066,"Alfarela, Caçarilhe e Infesta, Celorico de Basto, Braga, Portugal",Celorico de Basto,Portugal,0.36,place,hamlet,41.4132698,-8.0553201,137.5133545273142
Alfaiates,osm,6364281,"Alfaiates, Sabugal, Guarda, Portugal",Sabugal,Portugal,0.4585923461319497,boundary,administrative,40.3905568,-6.9128994,130.2400838267123
Alfafar,osm,9120586362,"Alfafar, Podentes, Penela, Coimbra, Portugal",Penela,Portugal,0.36,place,hamlet,40.0647581,-8.431948,15.849106537466966
Alegrete,osm,6441271,"Alegrete, Portalegre, Portalegre, Portugal",Portalegre,Portugal,0.4599999999999999,boundary,administrative,39.2412869,-7.302017075429656,144.1956504661744
Aldeia de Joanes,osm,1504416395,"Aldeia de Joanes, União do Grande Fundão, Fundão, Castelo Branco, Portugal",União do Grande Fundão,Portugal,0.5750000000000001,place,village,40.1363822,-7.5147068,78.02304371951678
Aldeia Galega do Ribatejo,osm,254916545,"Montijo, Montijo, Setúbal, Portugal",Montijo,Portugal,0.35,place,city,38.7060845,-8.9746372,173.24284425602656
Aldeia,osm,4196031285,"Aldeia, Vilar de Besteiros e Mosteiro de Fráguas, Tondela, Viseu, Portugal",Tondela,Portugal,0.36,place,hamlet,40.5680537,-8.0919289,49.07382538035585
Alcaria,osm,5332732,"Alcaria, Fundão, Castelo Branco, Portugal",Fundão,Portugal,0.4297110336847337,boundary,administrative,40.1996983,-7.5193298,77.19838084622204
Alter Pedroso,osm,372900823,"Alter Pedroso, Alter do Chão, Alter do Chão, Portalegre, Portugal",Alter do Chão,Portugal,0.45,place,hamlet,39.1877649,-7.6233455,132.49834369832044
"Alcaide, Fundão",osm,5328390,"Alcaide, Fundão, Castelo Branco, Portugal",Fundão,Portugal,0.539018527529768,boundary,administrative,40.1324137,-7.4400816,84.39413705095224
Alcabideque,osm,3439900786,"Alcabideque, Condeixa-a-Velha e Condeixa-a-Nova, Condeixa-a-Nova, Coimbra, Portugal",Condeixa-a-Nova,Portugal,0.36,place,neighbourhood,40.1046724,-8.4646273,11.874166974741769
Alagôa,osm,8295372655,"Alagôa, Vila Facaia, Pedrógão Grande, Leiria, Portugal",Pedrógão Grande,Portugal,0.36,place,hamlet,39.9542531,-8.2325483,32.59576651553216
Aguieiras,osm,2197204,"Aguieiras, Mirandela, Bragança, Portugal",Mirandela,Portugal,0.4599999999999999,boundary,administrative,41.7106655,-7.1936676,196.5455702063392
Agrobom,osm,5729059,"Agrobom, Saldonha e Vale Pereiro, Alfândega da Fé, Bragança, Portugal",Alfândega da Fé,Portugal,0.2299311114495475,boundary,administrative,41.3933979,-6.893418340490615,184.58097100739263
Outeiros,osm,8081756659,"Outeiros, Santiago dos Velhos, Arruda dos Vinhos, Lisboa, Portugal",Arruda dos Vinhos,Portugal,0.3099999999999999,place,isolated_dwelling,38.9731478,-9.1126764,149.1920422776815
Alpendurada,osm,431481497,"Vila de Alpendurada, Alpendorada, Várzea e Torrão, Marco de Canaveses, Porto, PT-13, Portugal","Alpendorada, Várzea e Torrão",Portugal,0.4,place,town,41.0866803,-8.2483748,98.78817535937914
Alvalade,osm,1148841877,"Alvalade, Alvalade, Lisboa, Lisboa, Portugal",Lisboa,Portugal,0.385,place,suburb,38.7473212,-9.1395885,173.342935206213
Benavila,osm,371191996,"Benavila, Benavila e Valongo, Avis, Portalegre, Portugal",Benavila e Valongo,Portugal,0.385,place,village,39.1116151,-7.8707652,130.66226427320893
Baraçal,osm,6371558,"Baraçal, Celorico da Beira, Guarda, Portugal",Celorico da Beira,Portugal,0.3997018831470392,boundary,administrative,40.6816152,-7.3282345,106.98575085427892
Beiçudo,osm,4578122817,"Beiçudo, Bordeira, Aljezur, Faro, Portugal",Aljezur,Portugal,0.36,place,hamlet,37.1722001,-8.8654785,339.09993547558287
Beijós,osm,6334874,"Beijós, Carregal do Sal, Viseu, Portugal",Carregal do Sal,Portugal,0.3558506578483178,boundary,administrative,40.5069662,-7.9597071,51.723620108487154
Baía Brasil,osm,8489642046,"Baia, Aguiar, Aguiar, Região Geográfica Imediata de Itaporanga, Região Metropolitana do Vale do Piancó, Região Geográfica Intermediária de Patos, Paraíba, BR-PB, Região Nordeste, Brasil",Aguiar,Brasil,0.3099999999999999,place,farm,-7.0264459,-38.1674481,6054.940491358123
"Barrô, Aveiro",osm,1744158107,"Barrô, Luso, Mealhada, Aveiro, Portugal",Mealhada,Portugal,0.47,place,hamlet,40.3914869,-8.405001,20.51648960296256
Barrosas,osm,4162185080,"Barrosas, Porto, PT-13, Portugal",Barrosas,Portugal,0.2381609715685461,place,town,41.3288819,-8.2659048,125.26881668761337
Barcarena,osm,566561849,"Núcleo Urbano Histórico de Barcarena, Ribeira Acima, Barcarena, Oeiras, Lisboa, Portugal",Barcarena,Portugal,0.36,place,neighbourhood,38.7319538,-9.279096635221672,179.5068523787285
Antuã,osm,1478646333,"Antuã, Salreu, Estarreja, Aveiro, Portugal",Estarreja,Portugal,0.36,place,hamlet,40.7504154,-8.5632295,61.40855205410356
Arruda dos Vinhos,osm,6519360,"Arruda dos Vinhos, Arruda dos Vinhos, Lisboa, Portugal",Arruda dos Vinhos,Portugal,0.5458506578483179,boundary,administrative,38.99119885,-9.062929029605822,145.69303965721718
Arnóia,osm,5160990535,"Arnoia, Carvalho e Basto (Santa Tecla), Celorico de Basto, Braga, Portugal",Celorico de Basto,Portugal,0.25,place,hamlet,41.3648502,-8.0519352,132.35296306751547
Arnal,osm,5167193574,"Arnal, Linhares, Carrazeda de Ansiães, Bragança, Portugal",Carrazeda de Ansiães,Portugal,0.36,place,hamlet,41.2203732,-7.3477936,144.75091285297674
Ariz,osm,5910306,"Bem Viver, Marco de Canaveses, Porto, PT-13, Portugal",Marco de Canaveses,Portugal,0.2793549821575413,boundary,administrative,41.1095689,-8.2180703,101.71245724976151
Argeriz,osm,4197846,"Algeriz, Valpaços, Vila Real, Portugal",Valpaços,Portugal,0.35,boundary,administrative,41.5860661,-7.3841711,176.48219982315797
Arcozelo das Maias,osm,6429438,"Arcozelo das Maias, Oliveira de Frades, Viseu, Portugal",Oliveira de Frades,Portugal,0.65,boundary,administrative,40.7353971,-8.2776103,59.96365144833045
Arcos de Anadia,osm,2502990573,"Arcos, Anadia, Aveiro, Portugal",Anadia,Portugal,0.5013117306116222,place,village,40.4482059,-8.4419809,26.771327265261085
"Cortes, Leiria",osm,790406466,"Cortes, Leiria, Leiria, Portugal",Leiria,Portugal,0.4316448708268294,place,village,39.7012422,-8.7850315,64.0310571352481
Aldeia do Bispo,osm,5430782,"Aldeia do Bispo, Águas e Aldeia de João Pires, Penamacor, Castelo Branco, Portugal","Aldeia do Bispo, Águas e Aldeia de João Pires",Portugal,0.4708812954247281,boundary,administrative,40.1054418,-7.179636257235453,106.7899628167541
Coucieiro,osm,3807672941,"Coucieiro, Prozelo, Arcos de Valdevez, Viana do Castelo, Portugal",Prozelo,Portugal,0.36,place,hamlet,41.8669074,-8.4345784,184.294960203536
Lagos da Beira,osm,1325049618,"Lagos da Beira, Lagos da Beira e Lajeosa, Oliveira do Hospital, Coimbra, Portugal",Lagos da Beira e Lajeosa,Portugal,0.5750000000000001,place,village,40.3748951,-7.8272441,54.2023143469066
Mateus,osm,4202135,"Mateus, Vila Real, Vila Real, Portugal",Vila Real,Portugal,0.3623442792274318,boundary,administrative,41.3006433,-7.7123375,135.5360492203031
"Massarelos, Porto",osm,2619609866,"Massarelos, Lordelo do Ouro e Massarelos, Senhora da Hora, Porto, PT-13, Portugal",Senhora da Hora,Portugal,0.5593067919005157,place,neighbourhood,41.1464844,-8.6316738,105.72036458086768
"Marzagão, Brasil",osm,2367231605,"Marzagão, Itabirito, Região Geográfica Imediata de Santa Bárbara - Ouro Preto, Região Geográfica Intermediária de Belo Horizonte, Minas Gerais, BR-MG, Região Sudeste, Brasil",Itabirito,Brasil,0.47,place,neighbourhood,-20.2020645,-43.8049934,7627.742968200879
Malhadas,osm,5388086669,"Malhadas, Degracias e Pombalinho, Soure, Coimbra, Portugal",Soure,Portugal,0.36,place,hamlet,39.9899527,-8.4953821,24.861176988097466
Lamas de Ferreira,osm,1346905403,"Lamas, Ferreira de Aves, Sátão, Viseu, Portugal",Sátão,Portugal,0.56,place,hamlet,40.7920764,-7.689779,90.05331928819076
Lamalonga,osm,5162681383,"Lamalonga, Ruivães e Campos, Vieira do Minho, Braga, Portugal",Vieira do Minho,Portugal,0.36,place,hamlet,41.6707514,-7.9988577,166.43955026947782
"Mação, Santarém",osm,6458560,"Mação, Penhascoso e Aboboreira, Mação, Santarém, Portugal",Mação,Portugal,0.5700000000000001,boundary,administrative,39.5619384,-8.020296181341694,79.62911755832532
Lagarinhos,osm,4053962429,"Lagarinhos, Brufe, Vila Nova de Famalicão, Braga, Portugal",Vila Nova de Famalicão,Portugal,0.36,place,neighbourhood,41.4201412,-8.5313459,134.96578199935828
Juncais,osm,6409545,"Juncais, Vila Ruiva e Vila Soeiro do Chão, Fornos de Algodres, Guarda, Portugal","Juncais, Vila Ruiva e Vila Soeiro do Chão",Portugal,0.3005083629626833,boundary,administrative,40.5909315,-7.515781227227519,88.22994624744074
Janeiro de Baixo,osm,6553589,"Janeiro de Baixo, Pampilhosa da Serra, Coimbra, Portugal",Pampilhosa da Serra,Portugal,0.65,boundary,administrative,40.0466701,-7.8046921,55.88472778860003
Inglaterra,osm,462455528,"Inglaterra, Londrina, Região Geográfica Imediata de Londrina, Região Geográfica Intermediária de Londrina, Paraná, BR-PR, Região Sul, Brasil",Londrina,Brasil,0.36,boundary,administrative,-23.3469152,-51.1476435,8313.33076973648
Ilha de São Tomé,osm,41725984,"São Tome do Manania, São Tome do Manania, Santa Isabel do Rio Negro, Santa Isabel do Rio Negro, Região Geográfica Imediata de São Gabriel da Cachoeira, Região Geográfica Intermediária de Manaus, Amazonas, BR-AM, Região Norte, Brasil",Santa Isabel do Rio Negro,Brasil,0.525,place,island,-0.41240435,-65.14408794453128,7280.633617594597
Idanha,osm,5355812944,"Idanha, Belas, Queluz e Belas, Sintra, Lisboa, Portugal",Queluz e Belas,Portugal,0.36,place,hamlet,38.7736196,-9.2705961,174.98221616919903
"Mateus, Vila Real",osm,4202135,"Mateus, Vila Real, Vila Real, Portugal",Vila Real,Portugal,0.5623442792274319,boundary,administrative,41.3006433,-7.7123375,135.5360492203031
Medeiros,osm,1517118896,"Medeiros, Chã, Montalegre, Vila Real, Portugal",Montalegre,Portugal,0.36,place,hamlet,41.7964909,-7.7839606,184.55267966124435
Guilhabreu,osm,5989549,"Guilhabreu, Vila do Conde, Porto, PT-13, Portugal",Vila do Conde,Portugal,0.4599999999999999,boundary,administrative,41.2945953,-8.6382243,122.05252108849658
Mêda de Mouros,osm,2569592941,"Meda de Mouros, Tábua, Coimbra, Portugal",Tábua,Portugal,0.475,place,village,40.2827665,-8.0171428,35.780819660791046
"Oliveirinha, Aveiro",osm,6021065,"Oliveirinha, Aveiro, Aveiro, Portugal",Aveiro,Portugal,0.5218656186130232,boundary,administrative,40.6059884,-8.5954063,46.53523202858406
"Olinda, Pernambuco, Brasil",osm,6188366,"Olinda, Olinda, Região Geográfica Imediata do Recife, Região Metropolitana do Recife, Região Geográfica Intermediária do Recife, Pernambuco, BR-PE, Região Nordeste, Brasil",Olinda,Brasil,0.6300000000000001,boundary,administrative,-7.999435500000001,-34.87104690649822,5989.442117830312
Nozedo,osm,5166973817,"Nozedo, São João da Corveira, Valpaços, Vila Real, Portugal",Valpaços,Portugal,0.36,place,hamlet,41.5882291,-7.4407483,174.37067440836148
Nodeirinho,osm,4924158350,"Nodeirinho, Graça, Pedrógão Grande, Leiria, Portugal",Pedrógão Grande,Portugal,0.1777101113307119,place,hamlet,39.9300478,-8.2363371,34.789960551887084
Muge,osm,6462088,"Muge, Salvaterra de Magos, Santarém, Portugal",Salvaterra de Magos,Portugal,0.4599999999999999,boundary,administrative,39.1044624,-8.7130345,124.91218472314593
"Mesão, Frio",osm,3191788582,"São Nicolau, Quinta da Cerca, Vila Jusã, Mesão Frio (Santo André), Mesão Frio, Vila Real, Portugal",Mesão Frio (Santo André),Portugal,0.45,place,neighbourhood,41.1574269,-7.8931951,114.70855628233564
Moure,osm,3171488221,"Moure, Póvoa de Lanhoso, Braga, Portugal",Póvoa de Lanhoso,Portugal,0.291472839091896,place,village,41.6078536,-8.3340477,155.71373923226318
"Moura, Beja",osm,25264853,"Moura, Moura, Beja, Portugal",Moura,Portugal,0.5700000000000001,place,city,38.1409785,-7.4500699,244.4190658224728
Monforte da Beira,osm,5454980,"Monforte da Beira, Castelo Branco, Castelo Branco, Portugal",Castelo Branco,Portugal,0.6104394744122309,boundary,administrative,39.7403505,-7.2987762,109.37083929060095
Molelinhos,osm,4244089573,"Molelinhos, Molelos, Tondela, Viseu, Portugal",Tondela,Portugal,0.36,place,hamlet,40.5192206,-8.114333,43.5837903023566
"Moimenta, Bragança",osm,1090607202,"Moimenta, Vinhais, Bragança, Portugal",Vinhais,Portugal,0.495,place,village,41.9508583,-6.9744425,228.83018620482792
Minhocal,osm,6371566,"Minhocal, Celorico da Beira, Guarda, Portugal",Celorico da Beira,Portugal,0.3950481715152184,boundary,administrative,40.6904173,-7.3465745,106.1195808594814
Minas do Ouro Preto,osm,3408896,"Ouro Preto, Pampulha, Belo Horizonte, Região Geográfica Imediata de Belo Horizonte, Região Metropolitana de Belo Horizonte, Região Geográfica Intermediária de Belo Horizonte, Minas Gerais, BR-MG, Região Sudeste, Brasil",Belo Horizonte,Brasil,0.55,boundary,administrative,-19.8722536,-43.9829877,7604.56483797545
Mesão-Frio,osm,8293309150,"Mesão Frio, Cardigos, Mação, Santarém, Portugal",Mação,Portugal,0.45,place,hamlet,39.6850749,-7.9525282,70.7180102800113
Nariz,osm,4018699914,"Nariz, Aveiro, Aveiro, Portugal",Aveiro,Portugal,0.385,place,village,40.5476769,-8.5874705,40.19378151012791
Fernão Joanes,osm,2364249,"Fernão Joanes, Guarda, Guarda, Portugal",Guarda,Portugal,0.5203958451676494,boundary,administrative,40.4856381,-7.3547644,96.11266353152668
"Faro, Tavira",osm,6431741,"Tavira, Tavira, Faro, Portugal",Tavira,Portugal,0.4457940944999783,boundary,administrative,37.19188724999999,-7.676984838025733,341.0321179599256
Falachos,osm,9412997740,"Falachos, Tamanhos, Trancoso, Guarda, Portugal",Trancoso,Portugal,0.36,place,hamlet,40.7798023,-7.309498,114.0112738296136
Estreito,osm,7570236350,"Estreito, Rio de Couros e Casal dos Bernardos, Ourém, Santarém, Portugal",Ourém,Portugal,0.36,place,hamlet,39.7468742,-8.5577101,52.35955749799252
Espite,osm,6461803,"Espite, Ourém, Santarém, Portugal",Ourém,Portugal,0.4599999999999999,boundary,administrative,39.7633055,-8.6380791,52.53377657272622
Espairo,osm,1523885305,"Espairo, São Lourenço do Bairro, Anadia, Aveiro, Portugal",Anadia,Portugal,0.36,place,hamlet,40.4391889,-8.4568981,25.8691958305499
Espadanedo,osm,5728059,"Espadanedo, Edroso, Murçós e Soutelo Mourisco, Macedo de Cavaleiros, Bragança, Portugal",Macedo de Cavaleiros,Portugal,0.34859140675544,boundary,administrative,41.65304985,-6.939262529892583,203.59278525835168
Esmolfe,osm,6436571,"Esmolfe, Penalva do Castelo, Viseu, Portugal",Penalva do Castelo,Portugal,0.3682184742933952,boundary,administrative,40.6795232,-7.6836313,81.94432933590788
Ervões,osm,4197849,"Ervões, Valpaços, Vila Real, Portugal",Valpaços,Portugal,0.4196338106604421,boundary,administrative,41.6556508,-7.3573536,184.29694424776093
Entre-os-Rios,osm,3552003872,"Entre-os-Rios, Eja, Penafiel, Porto, PT-13, Portugal",Penafiel,Portugal,0.55,place,neighbourhood,41.0852465,-8.2934355,98.12260121611122
"Eixo, Aveiro",osm,2467748427,"Eixo, Aveiro, Aveiro, Portugal",Aveiro,Portugal,0.52,place,town,40.6294024,-8.5655405,48.33116338234639
Coz,osm,6544477,"Coz, Alpedriz e Montes, Alcobaça, Leiria, Portugal",Alcobaça,Portugal,0.2091935201843558,boundary,administrative,39.6166695,-8.957042697203427,79.77498858475744
Couto de Baixo,osm,3166175736,"Couto de Baixo, Couto de Esteves, Sever do Vouga, Aveiro, Portugal",Sever do Vouga,Portugal,0.55,place,hamlet,40.7527183,-8.3069181,61.38795161035083
Granja de Ançã,osm,1326933332,"Granja da Ançã, Ançã, Cantanhede, Coimbra, Portugal",Ançã,Portugal,0.56,place,hamlet,40.2684758,-8.502666,9.408454456408789
Deocriste,osm,3874021566,"Deocriste, Viana do Castelo, Viana do Castelo, Portugal",Viana do Castelo,Portugal,0.385,place,village,41.6904909,-8.7043822,166.35840758546192
Ferradosa,osm,5330148615,"Ferradosa, Penacova, Penacova, Coimbra, Portugal",Penacova,Portugal,0.36,place,hamlet,40.2650366,-8.2579422,15.667461224433866
Francos,osm,3236131418,"Francos, Madalena e Beselga, Tomar, Santarém, Portugal",Tomar,Portugal,0.36,place,hamlet,39.600528,-8.485419,67.57640425611454
Ferreira de Poiares,osm,1601597877,"Ferreira, Santo André, Vila Nova de Poiares, Coimbra, Portugal",Vila Nova de Poiares,Portugal,0.56,place,hamlet,40.206065,-8.2593129,14.192112514893925
Gondomar,osm,3167700675,"Gondomar, Vila Verde, Braga, Portugal",Vila Verde,Portugal,0.2726514353057295,place,village,41.743278,-8.3634077,170.64342695868038
Gemeses,osm,4114430,"Gemeses, Esposende, Braga, Portugal",Esposende,Portugal,0.3418117876502597,boundary,administrative,41.5236635,-8.72593,148.34096345618116
Gavinhos,osm,1583112516,"Gavinhos, Figueira de Lorvão, Penacova, Coimbra, Portugal",Penacova,Portugal,0.36,place,hamlet,40.2867426,-8.3246303,12.327707808262804
Grandola,osm,5401848,"Grândola, Setúbal, Portugal",Grândola,Portugal,0.4278021975942903,boundary,administrative,38.1761212,-8.5680717,225.8469677611123
"Freixedas, Guarda",osm,6391633,"Freixedas, Pinhel, Guarda, Portugal",Pinhel,Portugal,0.509139026272805,boundary,administrative,40.6938017,-7.1627861,119.99808902074768
Folhadela,osm,4202132,"Folhadela, Vila Real, Vila Real, Portugal",Vila Real,Portugal,0.4330614454416833,boundary,administrative,41.2802952,-7.7392393,132.5097379006423
Feteiras,osm,5440636277,"Feteiras, Santa Bárbara, Vila do Porto, Açores, PT-20, Portugal",Vila do Porto,Portugal,0.36,place,hamlet,36.9994681,-25.0852204,1491.7245361507632
Figueira de Lorvão,osm,6553654,"Figueira de Lorvão, Penacova, Coimbra, Portugal",Penacova,Portugal,0.65,boundary,administrative,40.2872384,-8.3327714,11.894335691728276
Formariz,osm,4123784660,"Formariz, Vila do Conde, Vila do Conde, Retorta, Porto, PT-13, Portugal",Vila do Conde,Portugal,0.36,place,neighbourhood,41.3613281,-8.7288101,130.6649523351358
Goães,osm,3169471078,"Goães, Vila Verde, Braga, Portugal",Vila Verde,Portugal,0.3005083629626833,place,village,41.6844662,-8.5062898,164.16923119574366
Fontelo,osm,8653678895,"Fontelo, Medrões, Santa Marta de Penaguião, Vila Real, Portugal",Santa Marta de Penaguião,Portugal,0.36,place,hamlet,41.2043741,-7.8132619,122.22011286773323
Fonte Boa,osm,6510017406,"Fonte Boa, São Bento do Mato, Évora, Évora, Portugal",Évora,Portugal,0.3999999999999999,place,farm,38.688432,-7.8302649,176.26705814679616
Santa Comba de Dão,osm,6430641,"Santa Comba Dão e Couto de Mosteiro, Santa Comba Dão, Viseu, Portugal",Santa Comba Dão,Portugal,0.5746177363283245,boundary,administrative,40.40578185,-8.136867895756911,33.00452166924781
Ribolhos,osm,24956856,"Ribolhos, Castro Daire, Viseu, Portugal",Castro Daire,Portugal,0.385,place,village,40.8822532,-7.9296429,85.92682552634862
Rochoso,osm,1884086407,"Rochoso, Guarda, Guarda, Portugal",Guarda,Portugal,0.385,place,village,40.5158661,-7.0900571,118.5321412081045
Roças,osm,1757036,"Rocas, Região Leste, Região Geográfica Imediata de Natal, Região Geográfica Intermediária de Natal, Rio Grande do Norte, Região Nordeste, Brasil",Região Geográfica Imediata de Natal,Brasil,0.25,boundary,administrative,-5.7737244,-35.1997909,5782.834243131938
Rãs,osm,1346817573,"Rãs, Romãs, Decermilo e Vila Longa, Sátão, Viseu, Portugal",Sátão,Portugal,0.152720323856182,place,hamlet,40.7614268,-7.6371852,90.87138477200574
"Sabará, Minas Gerais, Brasil",osm,6347742047,"Sabará, Lourenço Velho, Itajubá, Região Geográfica Imediata de Itajubá, Região Geográfica Intermediária de Pouso Alegre, Minas Gerais, BR-MG, Região Sudeste, Brasil",Itajubá,Brasil,0.6699999999999999,place,neighbourhood,-22.3556325,-45.3657675,7914.703808364467
"Santa Cristina, Porto",osm,4711691190,"Santa Cristina, Folgosa, Maia, Porto, PT-13, Portugal",Folgosa,Portugal,0.56,place,hamlet,41.2445386,-8.540826,115.57813538177244
Salgueirais,osm,1599242619,"Salgueirais, Celorico da Beira, Guarda, Portugal",Celorico da Beira,Portugal,0.385,place,village,40.5700959,-7.4254727,94.0140584440794
"Salgueiro, Guarda",osm,1590153726,"Casal do Salgueiro de Baixo, Folgosinho, Gouveia, Guarda, Portugal",Gouveia,Portugal,0.46,place,hamlet,40.4571708,-7.4980393,83.59077872180885
Samil,osm,1554207326,"Samil, São Roque, Oliveira de Azeméis, Aveiro, Portugal",Oliveira de Azeméis,Portugal,0.36,place,hamlet,40.8887511,-8.471697,75.75725499446546
Santa Clara,osm,1975702312,"Santa Clara, Alcaravela, Sardoal, Santarém, Portugal",Sardoal,Portugal,0.45,place,hamlet,39.5629538,-8.125352,76.03757697602492
Refojos de Lima,osm,4175413,"Refojos de Basto, Outeiro e Painzela, Cabeceiras de Basto, Braga, Portugal",Cabeceiras de Basto,Portugal,0.285440647712364,boundary,administrative,41.514117,-8.006427922348184,149.35917720752434
Ramalhal,osm,8641914179,"Ramalhal, Pussos São Pedro, Alvaiázere, Leiria, Portugal",Pussos São Pedro,Portugal,0.36,place,hamlet,39.7745404,-8.3670052,48.32816032883082
Reboreda,osm,5162703861,"Reboreda, Salto, Vila Real, Portugal",Salto,Portugal,0.36,place,hamlet,41.6291088,-7.929082,163.33581629092927
Santa Margarida,osm,2219716121,"Santa Margarida do Sado, Figueira dos Cavaleiros, Ferreira do Alentejo, Beja, Portugal",Ferreira do Alentejo,Portugal,0.45,place,hamlet,38.1110775,-8.3582723,232.8067127985489
"Recardães, Águeda",osm,999534955,"Recardães, Águeda, Aveiro, Portugal",Águeda,Portugal,0.495,place,village,40.5688007,-8.461833,40.24340440674396
Recezinhos,osm,5928140,"Recezinhos (São Mamede), Penafiel, Porto, PT-13, Portugal",Penafiel,Portugal,0.4041234681398241,boundary,administrative,41.2388072,-8.2129207,115.93992210236748
Redial,osm,1236365899,"Redial, Vilela do Tâmega, Chaves, Vila Real, Portugal",Chaves,Portugal,0.36,place,hamlet,41.6764849,-7.5279895,179.8144837173366
"Redondo, Évora",osm,6440001,"Redondo, Redondo, Évora, Portugal",Redondo,Portugal,0.5700000000000001,boundary,administrative,38.64606255,-7.601075649728556,187.3329797016252
Refojos,osm,4175413,"Refojos de Basto, Outeiro e Painzela, Cabeceiras de Basto, Braga, Portugal",Cabeceiras de Basto,Portugal,0.185440647712364,boundary,administrative,41.514117,-8.006427922348184,149.35917720752434
Rego Travesso,osm,6568824515,"Urbanização Rêgo Travesso, Mourã, Leiria, Pousos, Barreira e Cortes, Leiria, Leiria, Portugal",Leiria,Portugal,0.35,place,neighbourhood,39.725002,-8.8139819,62.99153300231441
Reigada,osm,4285986173,"Reigada, Figueira de Castelo Rodrigo, Guarda, Portugal",Figueira de Castelo Rodrigo,Portugal,0.3083870403687118,place,village,40.8035952,-6.9486082,141.64463446814267
Reigoso,osm,4062662839,"Reigoso, Oliveira de Frades, São João da Serra, Viseu, Portugal",Oliveira de Frades,Portugal,0.385,place,village,40.6919897,-8.2621508,55.5742740969694
Ribeira Grande,osm,3714211613,"Ribeira Grande, Ribeiras, Lajes do Pico, Açores, PT-20, Portugal",Lajes do Pico,Portugal,0.45,place,hamlet,38.4093925,-28.1402937,1708.4426619313515
"Santa Eulália, Guarda",osm,1325069440,"Santa Eulália, Seia, Guarda, Portugal",Seia,Portugal,0.5850000000000001,place,village,40.4144868,-7.7948259,58.37228921669988
Santão,osm,2587095734,"Santão, Mancelos, Amarante, Porto, PT-13, Portugal",Amarante,Portugal,0.36,place,hamlet,41.2814719,-8.1502389,121.52471672972392
Sarnadela,osm,8901553491,"Sarnadela, Pombeiro da Beira, Arganil, Coimbra, Portugal",Arganil,Portugal,0.36,place,hamlet,40.2165936,-8.1161435,26.39774859102612
Sarzeda,osm,8095362780,"Sarzeda, Pousaflores, Ansião, Leiria, Portugal",Ansião,Portugal,0.36,place,hamlet,39.8830355,-8.4470439,36.06314483741391
"Sarzedo, Arganil",osm,6549073,"Sarzedo, Arganil, Coimbra, Portugal",Sarzedo,Portugal,0.490074815609084,boundary,administrative,40.2535627,-8.080099079158535,29.881028426235915
Segura,osm,439764585,"Segura, Zebreira e Segura, Idanha-a-Nova, Castelo Branco, Portugal",Zebreira e Segura,Portugal,0.385,place,village,39.8263863,-6.979608,130.5277187576881
"Seixas, Caminha",osm,5631387,"Seixas, Caminha, Viana do Castelo, Portugal",Seixas,Portugal,0.4915966805698038,boundary,administrative,41.8924512,-8.820366888543905,190.04443378590352
Selores,osm,7775376366,"Selores, Campia, Vouzela, Viseu, Portugal",Vouzela,Portugal,0.36,place,hamlet,40.6465405,-8.2600606,50.75359096658176
Sendim da Serra,osm,1503943945,"Sendim da Serra, Alfândega da Fé, Bragança, Portugal",Alfândega da Fé,Portugal,0.5469815592908572,place,village,41.2941698,-6.9782273,171.7892595650707
Senhorim,osm,6366070,"Senhorim, Nelas, Viseu, Portugal",Nelas,Portugal,0.3591829504226079,boundary,administrative,40.5398434,-7.8207072,63.28556590678878
Serapicos,osm,4197858,"Serapicos, Valpaços, Vila Real, Portugal",Valpaços,Portugal,0.3523278476590363,boundary,administrative,41.6131836,-7.4402787,176.8240619096743
Sergude,osm,5163388172,"Sergude, Peso da Régua e Godim, Peso da Régua, Vila Real, Portugal",Peso da Régua,Portugal,0.36,place,hamlet,41.1625822,-7.810406,118.14560149381524
"Quintela, Viseu",osm,8422193819,"Quintela, Queirã, Vouzela, Viseu, Portugal",Vouzela,Portugal,0.47,place,hamlet,40.6971881,-8.0449687,63.26505280047102
"Silvares, Fundão",osm,5385259,"Silvares, Fundão, Castelo Branco, Portugal",Silvares,Portugal,0.5279901826057103,boundary,administrative,40.1364023,-7.671678,64.73483128942809
Sapateira,osm,2505390106,"Sapateira, Castanheira de Pera e Coentral, Castanheira de Pera, Leiria, Portugal",Castanheira de Pera,Portugal,0.36,place,hamlet,40.0226003,-8.1955072,28.41249903349645
"Santo Isidoro, Mafra",osm,6522366,"Santo Isidoro, Mafra, Lisboa, Portugal",Mafra,Portugal,0.6002596462240581,boundary,administrative,38.9938312,-9.3972208,158.47012395524533
Santa Maria de Arrifana,osm,6022189,"Arrifana, Santa Maria da Feira, Aveiro, Portugal",Santa Maria da Feira,Portugal,0.6505469222584372,boundary,administrative,40.9116856,-8.4952939,78.42509865239155
Santo António dos Olivais,osm,2310497041,"Santo António dos Olivais, Santo António dos Olivais, Coimbra, Coimbra, Portugal",Coimbra,Portugal,0.675,place,suburb,40.2180356,-8.4047803,2.157079972170566
Santa Marta de Penaguião,osm,4203514,"Santa Marta de Penaguião, Vila Real, Portugal",Santa Marta de Penaguião,Portugal,0.8149957145331614,boundary,administrative,41.22331175,-7.797655653102723,124.6810658714858
Santa Marta de Portuzelo,osm,5714263,"Santa Marta de Portuzelo, Viana do Castelo, Viana do Castelo, Portugal",Santa Marta de Portuzelo,Portugal,0.7230614454416833,boundary,administrative,41.7155615,-8.766363408921505,169.91649753534062
Santa Ovaia de Cima,osm,4242769430,"Santa Ovaia de Cima, Canas de Santa Maria, Tondela, Viseu, Portugal",Tondela,Portugal,0.65,place,hamlet,40.5515027,-8.0591086,49.300278013362096
Santiago de Armamar,osm,4253686347,"Santiago, Armamar, Viseu, Portugal",Armamar,Portugal,0.495,place,village,41.0785273,-7.690629,115.0061367913028
Santiago de Cassurrães,osm,1514341389,"Santiago de Cassurrães, Mangualde, Viseu, Portugal",Mangualde,Portugal,0.551308416199056,place,village,40.5788253,-7.7039594,73.88409956125076
Santiago de Riba Ul,osm,6022004,"Oliveira de Azeméis, Santiago de Riba-Ul, Ul, Macinhata da Seixa e Madail, Oliveira de Azeméis, Aveiro, Portugal",Oliveira de Azeméis,Portugal,0.634193162948078,boundary,administrative,40.8359477,-8.482134847357148,69.95632557921493
"Santiago, Guarda",osm,8092748074,"Guarda, Santiago da Guarda, Ansião, Leiria, Portugal",Ansião,Portugal,0.46,place,hamlet,39.9525271,-8.4940612,28.89172367718947
Ramalde,osm,2404295993,"Ramalde, Gondomar (São Cosme), Valbom e Jovim, Valbom, Porto, PT-13, Portugal",Valbom,Portugal,0.36,place,hamlet,41.1298034,-8.5224902,102.75253658222174
Pedroso,osm,2554606582,"Pedroso, Rego, Celorico de Basto, Braga, Portugal",Celorico de Basto,Portugal,0.36,place,hamlet,41.4385952,-8.0793227,139.81498089611355
Quintal,osm,1433122151,"Quintal, Murtais, Mafra, Mafra, Lisboa, Portugal",Mafra,Portugal,0.36,place,neighbourhood,38.9399888,-9.3649849,162.20378123386067
Painzela,osm,3174866832,"Painzela, Cabeceiras de Basto, Braga, Portugal",Cabeceiras de Basto,Portugal,0.3823437491030711,place,village,41.5238938,-8.0129042,150.2862917205634
Panasco,osm,6547703513,"Panasco, Pias, Serpa, Beja, Portugal",Pias,Portugal,0.3099999999999999,place,farm,38.0738129,-7.4774615,250.6585394464123
Panóias,osm,289890362,"Panoias, Ourique, Beja, Portugal",Ourique,Portugal,0.275,place,village,37.7606558,-8.3034966,271.8354997301784
Parada de Ester,osm,24956633,"Parada de Ester, Castro Daire, Viseu, Portugal",Castro Daire,Portugal,0.56358119422997,place,village,40.9325712,-8.0584593,86.329859779829
Paradela de Lorvão,osm,4209275495,"Paradela de Lorvão, Lorvão, Coimbra, Portugal",Lorvão,Portugal,0.56,place,hamlet,40.2655818,-8.3308385,10.35807785424344
"Paranhos, Porto",osm,2372347931,"Paranhos, São Mamede de Infesta, Porto, PT-13, Portugal",São Mamede de Infesta,Portugal,0.495,place,suburb,41.1739458,-8.6058236,108.40131303304558
"Paraíba do Norte, Brasil",osm,7557114,"Paraíba, Caicó, Caicó, Região Geográfica Imediata de Caicó, Região Geográfica Intermediária de Caicó, Rio Grande do Norte, Região Nordeste, Brasil",Caicó,Brasil,0.6699999999999999,boundary,administrative,-6.4692379,-37.0973079,5945.621855787156
Paredes do Bairro,osm,2507317194,"Paredes do Bairro, Anadia, Aveiro, Portugal",Anadia,Portugal,0.5563219431370923,place,village,40.4535741,-8.5082406,28.212258301407942
Passos de Santa Marinha,osm,5161572272,"Passos, Santa Marinha do Zêzere, Baião, Porto, PT-13, Portugal",Santa Marinha do Zêzere,Portugal,0.56,place,hamlet,41.1360194,-7.9551101,110.53736647841777
Paus,osm,6438269,"Paus, Resende, Viseu, Portugal",Resende,Portugal,0.3950481715152184,boundary,administrative,41.0714486,-7.8998059,105.7692107860217
Paços de Brandão,osm,6022197,"Paços de Brandão, Santa Maria da Feira, Aveiro, Portugal",Santa Maria da Feira,Portugal,0.6479424378317005,boundary,administrative,40.9738702,-8.5915442,86.25692227068231
Paços de Ferreira,osm,5913212,"Paços de Ferreira, Paços de Ferreira, Porto, PT-13, Portugal",Paços de Ferreira,Portugal,0.585649467985799,boundary,administrative,41.2760689,-8.376875,118.74460617019238
"Pedreira, Unhão",osm,5837308,"Pedreira, Rande e Sernande, Felgueiras, Longra, Porto, PT-13, Portugal",Felgueiras,Portugal,0.3175345213990273,boundary,administrative,41.3303889,-8.223293418263568,125.87364862881932
Pegarinhos,osm,4204529,"Pegarinhos, Alijó, Vila Real, Portugal",Alijó,Portugal,0.3859490106750474,boundary,administrative,41.3559603,-7.4452731,152.05367356773692
Palma,osm,5161572314,"Palma, São Romão de Aregos, Anreade e São Romão de Arego, Resende, Viseu, Portugal",Anreade e São Romão de Arego,Portugal,0.36,place,hamlet,41.1000678,-7.9818034,106.00552748115614
Ovôa,osm,1427264226,"Ovoa, Santa Comba Dão, Viseu, Portugal",Santa Comba Dão,Portugal,0.2469815592908572,place,village,40.3809769,-8.1313787,31.605945960002536
Percelada,osm,1325119623,"Percelada, Covas e Vila Nova de Oliveirinha, Tábua, Coimbra, Portugal",Tábua,Portugal,0.36,place,hamlet,40.3424622,-7.9466855,43.43638058641232
Outil,osm,1880560418,"Outil, Portunhos e Outil, Cantanhede, Coimbra, Portugal",Portunhos e Outil,Portugal,0.385,place,village,40.3095377,-8.5892167,17.926399766062566
Numão,osm,6393406,"Numão, Vila Nova de Foz Coa, Guarda, Portugal",Vila Nova de Foz Coa,Portugal,0.3950481715152184,boundary,administrative,41.0959485,-7.2917837,137.6116931437737
Oledo,osm,5437698,"Oledo, Idanha-a-Nova, Castelo Branco, Portugal",Idanha-a-Nova,Portugal,0.4599999999999999,boundary,administrative,39.9718181,-7.3002672,99.504789725248
"Olivais, Lisboa",osm,1540746800,"Olivais, Olivais, Lisboa, Lisboa, Portugal",Lisboa,Portugal,0.495,place,suburb,38.7683121,-9.1174618,170.48915218381003
Oliveira de Azemeis,osm,6022004,"Oliveira de Azeméis, Santiago de Riba-Ul, Ul, Macinhata da Seixa e Madail, Oliveira de Azeméis, Aveiro, Portugal",Oliveira de Azeméis,Portugal,0.4241931629480781,boundary,administrative,40.8359477,-8.482134847357148,69.95632557921493
"Oliveira, Mesão Frio",osm,4203571,"Oliveira, Mesão Frio, Vila Real, Portugal",Mesão Frio,Portugal,0.5623442792274319,boundary,administrative,41.17463,-7.8301395,118.62852577566578
"Oliveirinha, Oliveira do Conde",osm,1426985533,"Oliveirinha, Oliveira do Conde, Carregal do Sal, Viseu, Portugal",Carregal do Sal,Portugal,0.6599999999999999,place,hamlet,40.4502808,-7.9702428,47.19508712644488
"Oliveirinha, Viseu",osm,1426985533,"Oliveirinha, Oliveira do Conde, Carregal do Sal, Viseu, Portugal",Carregal do Sal,Portugal,0.47,place,hamlet,40.4502808,-7.9702428,47.19508712644488
Olêdo,osm,5437698,"Oledo, Idanha-a-Nova, Castelo Branco, Portugal",Idanha-a-Nova,Portugal,0.35,boundary,administrative,39.9718181,-7.3002672,99.504789725248
Ouro,osm,4444158572,"Ouro, Lordelo do Ouro e Massarelos, Senhora da Hora, Porto, PT-13, Portugal",Senhora da Hora,Portugal,0.36,place,neighbourhood,41.148438,-8.6489028,106.1831244778263
"Outeiro, Sertã",osm,1142483693,"Outeiro, Sertã, Castelo Branco, Portugal",Sertã,Portugal,0.495,place,village,39.7869564,-8.0188227,58.21242541100174
Penha Garcia,osm,5431477,"Penha Garcia, Idanha-a-Nova, Castelo Branco, Portugal",Idanha-a-Nova,Portugal,0.503230229325644,boundary,administrative,40.0422569,-7.0163521,121.54619851813666
"Peredo, Moncorvo",osm,5717596,"Urros e Peredo dos Castelhanos, Torre de Moncorvo, Bragança, Portugal",Torre de Moncorvo,Portugal,0.4008043070254484,boundary,administrative,41.08318475,-7.039510971452955,152.34901977994528
Prados,osm,3775055373,"Prados, Moreira, Moreira, Monção, Viana do Castelo, Portugal",Moreira,Portugal,0.36,place,hamlet,42.028195,-8.487742,202.2745798274428
Prelada,osm,3420169852,"Prelada, Lemenhe, Mouquim e Jesufrei, Vila Nova de Famalicão, Braga, Portugal",Vila Nova de Famalicão,Portugal,0.36,place,neighbourhood,41.448442,-8.535288,138.12393640759527
Prime,osm,1304793232,"Prime, Fragosela, Viseu, Viseu, Portugal",Viseu,Portugal,0.36,place,hamlet,40.6376509,-7.8322125,69.4381713831508
Proença a Velha,osm,5435195,"Proença-a-Velha, Idanha-a-Nova, Castelo Branco, Portugal",Idanha-a-Nova,Portugal,0.5970855185391934,boundary,administrative,40.0258401,-7.2411462,102.9989698652264
Pé de Cão,osm,1448739073,"Pé de Cão, Olaia e Paço, Torres Novas, Santarém, Portugal",Torres Novas,Portugal,0.55,place,hamlet,39.5402226,-8.4894608,74.27927190493983
Póvoa Nova,osm,1424200647,"Póvoa Nova, Santa Marinha e São Martinho, Seia, Guarda, Portugal",Seia,Portugal,0.45,place,hamlet,40.4280606,-7.6571928,69.7878959260262
Póvoa de Cervães,osm,1425136376,"Póvoa de Cervães, Mangualde, Viseu, Portugal",Mangualde,Portugal,0.5446986168413893,place,village,40.5604418,-7.6869295,73.99379040190841
Póvoa de Midões,osm,6553837,"Póvoa de Midões, Tábua, Coimbra, Portugal",Tábua,Portugal,0.65,boundary,administrative,40.3934132,-7.9760391,43.47396099468393
Póvoa de São Cosme,osm,1325049591,"Póvoa de São Cosme, Ervedal e Vila Franca da Beira, Oliveira do Hospital, Coimbra, Portugal",Ervedal e Vila Franca da Beira,Portugal,0.65,place,hamlet,40.4385779,-7.9038169,51.26856132200225
Póvoa do Bispo,osm,3029779300,"Póvoa do Bispo, Ourentã, Cantanhede, Coimbra, Portugal",Cantanhede,Portugal,0.55,place,hamlet,40.3860626,-8.550466,22.48248147527673
Póvoa do Sobral,osm,1427190092,"Póvoa da Arenosa, Carregal do Sal, Carregal do Sal, Viseu, Portugal",Carregal do Sal,Portugal,0.45,place,hamlet,40.4273453,-8.0365457,41.13572108113296
"Póvoa, Aveiro",osm,8240092233,"Póvoa, Alvarenga, Arouca, Aveiro, Portugal",Alvarenga,Portugal,0.47,place,hamlet,40.9773064,-8.1802117,87.98795664957815
Quilho,osm,5302206121,"Quilho, Espinho, Mortágua, Viseu, Portugal",Mortágua,Portugal,0.36,place,hamlet,40.4263198,-8.3071447,26.32250001020985
Quinta da Boavista,osm,8238397201,"Quinta da Boavista, Santa Clara de Louredo, Beja, Beja, Portugal",Beja,Portugal,0.5,place,farm,37.9788482,-7.8684489,252.06666406602267
"Povoação, Vila Real",osm,5163933824,"Povoação, Alvão, Vila Pouca de Aguiar, Vila Real, Portugal",Vila Pouca de Aguiar,Portugal,0.56,place,hamlet,41.4753012,-7.7142562,153.05893665467937
"Pereira, Miranda do Corvo",osm,5471530325,"Pereira, Miranda do Corvo, Miranda do Corvo, Coimbra, Portugal",Miranda do Corvo,Portugal,0.6599999999999999,place,hamlet,40.0758555,-8.3127336,17.50965364712804
Povoação,osm,3744294193,"Povoação, São Gens, Fafe, Braga, Portugal",Fafe,Portugal,0.36,place,hamlet,41.4532411,-8.0899408,141.22287043704088
"Pereira, Mouronho",osm,2569593953,"Pereira, Mouronho, Tábua, Coimbra, Portugal",Tábua,Portugal,0.47,place,hamlet,40.2963025,-8.0265204,35.3915888155114
Perozelo,osm,5928138,"Perozelo, Penafiel, Porto, PT-13, Portugal",Penafiel,Portugal,0.429018527529768,boundary,administrative,41.148077,-8.2684074,105.30380507071142
Pinhete,osm,5390632153,"Pinhete, Santiago e São Simão de Litém e Albergaria dos Doze, Pombal, Leiria, Portugal",Pombal,Portugal,0.36,place,hamlet,39.8514952,-8.6508966,43.93579898646697
Ponte da Mata,osm,5329847109,"Ponte da Mata, Sazes do Lorvão, Penacova, Coimbra, Portugal",Penacova,Portugal,0.55,place,hamlet,40.3252399,-8.3625698,14.151497657560888
Ponte de Louro,osm,3420169851,"Ponte do Louro, Louro, Vila Nova de Famalicão, Braga, Portugal",Vila Nova de Famalicão,Portugal,0.56,place,neighbourhood,41.4436774,-8.5460735,137.6599178315219
Pontével,osm,6458242,"Pontével, Cartaxo, Santarém, Portugal",Pontével,Portugal,0.3727191885788625,boundary,administrative,39.1490107,-8.8379672,122.71331682246284
"Portel, Évora",osm,6439979,"Portel, Portel, Évora, Portugal",Portel,Portugal,0.5700000000000001,boundary,administrative,38.30859,-7.70497,219.80073126626
"Portela, Vila Verde",osm,3570606994,"Portela do Sol, Vila Verde dos Francos, Alenquer, Lisboa, Portugal",Alenquer,Portugal,0.55,place,hamlet,39.157382,-9.0853404,129.58026139849383
Porto de Rei,osm,5830096,"Bustelo, Carneiro e Carvalho de Rei, Amarante, Porto, PT-13, Portugal","Bustelo, Carneiro e Carvalho de Rei",Portugal,0.5308608703737879,boundary,administrative,41.22178435,-7.995170952987229,118.37929728763736
Portél,osm,6439979,"Portel, Portel, Évora, Portugal",Portel,Portugal,0.35,boundary,administrative,38.30859,-7.70497,219.80073126626
Pousafoles,osm,3790522667,"Pousafoles, Fiães, Melgaço, Viana do Castelo, Portugal",Fiães,Portugal,0.36,place,hamlet,42.1105993,-8.1909532,212.2796012810539
Silveiro,osm,1008052481,"Silveiro, Oiã, Oliveira do Bairro, Aveiro, Portugal",Oliveira do Bairro,Portugal,0.36,place,hamlet,40.5372402,-8.5079656,37.27924868233952
"Sobral, Mortágua",osm,6365970,"Sobral, Mortágua, Viseu, Portugal",Mortágua,Portugal,0.5700000000000001,boundary,administrative,40.4412435,-8.2326586,30.726659793350688
Vale da Porca,osm,8350500066,"Vale da Porca, Maçãs de Dona Maria, Alvaiázere, Leiria, Portugal",Alvaiázere,Portugal,0.55,place,hamlet,39.897679,-8.3092456,35.80643021754953
Vale de Nogueira,osm,1922086768,"Vale de Nogueira, Lousã, Lousã e Vilarinho, Lousã, Coimbra, Portugal",Lousã e Vilarinho,Portugal,0.55,place,hamlet,40.0929123,-8.2606817,18.97620946946453
Vale de Prados,osm,5171677251,"Vale de Prados, Rio Frio e Milhão, Bragança, Bragança, Portugal",Bragança,Portugal,0.55,place,hamlet,41.768287,-6.6483271,228.95267498109132
Vale do Lobo,osm,1228966288,"Vale do Lobo, Préstimo e Macieira de Alcoba, Águeda, Aveiro, Portugal",Águeda,Portugal,0.55,place,hamlet,40.6083155,-8.3487551,44.99653271919776
Valhelhas,osm,1448739060,"Valhelhas, Olaia e Paço, Torres Novas, Santarém, Portugal",Torres Novas,Portugal,0.36,place,hamlet,39.5109653,-8.511078,77.67082168065828
"Valpaços, Vila Real",osm,4197882,"Valpaços, Vila Real, Portugal",Valpaços,Portugal,0.7431102546453549,boundary,administrative,41.6067883,-7.3108525,181.59285361701785
Vascoveiro,osm,1639860628,"Vascoveiro, Vascoveiro, Pinhel, Guarda, Portugal",Vascoveiro,Portugal,0.385,place,village,40.7335065,-7.0704012,128.95096296383596
Vassal,osm,4197862,"Vassal, Valpaços, Vila Real, Portugal",Valpaços,Portugal,0.438369791841981,boundary,administrative,41.6167863,-7.3566981,180.5832498713732
Velosa,osm,1930574337,"Velosa, Celorico da Beira, Guarda, Portugal",Celorico da Beira,Portugal,0.385,place,village,40.6520085,-7.2908536,108.2374282994597
"Vestiaria, Alcobaça",osm,2880493637,"Vestiaria, Alcobaça, Leiria, Portugal",Alcobaça,Portugal,0.495,place,village,39.5537637,-8.995577,87.41433575621063
Vidago,osm,4194884,"Vidago, Chaves, Vila Real, Portugal",Chaves,Portugal,0.3985709817044999,boundary,administrative,41.6417013,-7.5717338,174.7768301019586
Vila Boim,osm,1975581410,"Vila Boim, Elvas, Portalegre, Portugal",Elvas,Portugal,0.470074815609084,place,village,38.8624353,-7.2747751,179.14446118776044
Vila Chã de Sá,osm,4325381350,"Vila Chã de Sá, Viseu, Viseu, Portugal",Viseu,Portugal,0.675,place,village,40.6117889,-7.9502938,60.38719033389172
Vila Cortes,osm,6952180171,"Cortes, Espite, Ourém, Santarém, Portugal",Ourém,Portugal,0.36,place,hamlet,39.753262,-8.6453436,53.795300238781394
Vila Cortez,osm,1603922664,"Feijó, Almada, Setúbal, Portugal",Almada,Portugal,0.2685144183561603,place,village,38.6529791,-9.1665562,183.97981319597275
Vale de Besteiros,osm,5347014614,"Vale, Barreiro de Besteiros e Tourigo, Tondela, Viseu, Portugal",Tondela,Portugal,0.56,place,hamlet,40.4827643,-8.174665,37.29336454796336
Vale da Madre,osm,5718033,"Vale da Madre, Mogadouro, Bragança, Portugal",Mogadouro,Portugal,0.6158021943488056,boundary,administrative,41.3643051,-6.7098794,193.6085678679262
Vale Maior,osm,5329938259,"Vale Maior, Friúmes e Paradela, Penacova, Coimbra, Portugal",Penacova,Portugal,0.45,place,hamlet,40.2722242,-8.2341778,17.838873387752248
Tapeus,osm,6553748,"Tapéus, Soure, Coimbra, Portugal",Soure,Portugal,0.2591452947568411,boundary,administrative,40.0367231,-8.5399332,21.29704810425605
Tazem,osm,5166462027,"Tazém, Padrela e Tazem, Valpaços, Vila Real, Portugal",Valpaços,Portugal,0.35,place,hamlet,41.5515629,-7.4901867,168.82544880650093
Toledo,osm,5730301025,"Toledo, Santo Amaro, Velas, Açores, PT-20, Portugal",Velas,Portugal,0.36,place,hamlet,38.6969321,-28.1474877,1702.200114148918
Torgueda,osm,1819943645,"Torgueda, Chã, Montalegre, Vila Real, Portugal",Montalegre,Portugal,0.36,place,hamlet,41.7876691,-7.7942835,183.36345589615027
Touça,osm,6393410,"Touça, Vila Nova de Foz Coa, Guarda, Portugal",Vila Nova de Foz Coa,Portugal,0.3845321115064417,boundary,administrative,41.0472072,-7.2343843,137.33329304367263
"Travanca, Viseu",osm,1109317179,"Travanca, Oliveira de Frades, Souto de Lafões e Sejães, Oliveira de Frades, São João da Serra, Viseu, Portugal",Oliveira de Frades,Portugal,0.47,place,hamlet,40.7315557,-8.1924914,61.4784589771143
Travasso,osm,3236308219,"Travassô, Abadim, Cabeceiras de Basto, Braga, Portugal",Cabeceiras de Basto,Portugal,0.25,place,hamlet,41.5736268,-7.9724972,156.45849923520515
Tremez,osm,2824616107,"Tremês, Santarém, Santarém, Portugal",Tremês,Portugal,0.3,place,town,39.3592934,-8.7613643,98.45247361564
Turim,osm,43992,"Torino, Torino, IT-TO, Piemonte, IT-21, Italia",Torino,Italia,0.7068062387577692,boundary,administrative,45.0677551,7.6824892,1424.0985707698346
Unhais-o-Velho,osm,6553592,"Unhais-o-Velho, Pampilhosa da Serra, Coimbra, Portugal",Pampilhosa da Serra,Portugal,0.5523442792274319,boundary,administrative,40.1313895,-7.8104395,53.11042750739809
"Valada, Santarém",osm,8021653944,"Valada, Seiça, Ourém, Santarém, Portugal",Ourém,Portugal,0.47,place,hamlet,39.6614108,-8.5326778,61.30729224580372
Vila Cova de Lixa,osm,5161225161,"Vila Cova, Vila Cova da Lixa e Borba de Godim, Lixa, Porto, PT-13, Portugal",Lixa,Portugal,0.6599999999999999,place,hamlet,41.3243291,-8.1571341,126.09200042578756
Vila Flôr,osm,5248379,"Vila Flor, Bragança, Portugal",Vila Flor,Portugal,0.5272633970823335,boundary,administrative,41.3067941,-7.1517712,162.7301070351863
Vilar Chão,osm,3172353436,"Vilar Chão, Vieira do Minho, Braga, Portugal",Vieira do Minho,Portugal,0.201,place,village,41.6128097,-8.0917003,158.59192324465346
"Vilar Seco, Viseu",osm,6366071,"Vilar Seco, Nelas, Viseu, Portugal",Nelas,Portugal,0.5744313097683034,boundary,administrative,40.5585471,-7.8645908,61.585767138109546
Vilar do Paraíso,osm,4015684794,"Vilar do Paraíso, Vila Nova de Gaia, Valadares, Porto, PT-13, Portugal",Vila Nova de Gaia,Portugal,0.6058720222757678,place,suburb,41.1064555,-8.6153529,101.11123238573856
Vilarinho de Freires,osm,4203798,"Vilarinho dos Freires, Peso da Régua, Vila Real, Portugal",Peso da Régua,Portugal,0.4660971516994237,boundary,administrative,41.176677,-7.7458529,122.02407027513348
"Vinhais, Bragança",osm,5739345,"Vinhais, Vinhais, Bragança, Portugal",Vinhais,Portugal,0.5700000000000001,boundary,administrative,41.8258052,-7.001473683421796,216.00084660808625
Vinhal,osm,3420730761,"Vinhal, Vila Nova de Famalicão e Calendário, Vila Nova de Famalicão, Braga, Portugal",Vila Nova de Famalicão,Portugal,0.36,place,neighbourhood,41.4132153,-8.5270213,134.17461682491373
Vodra,osm,1878148326,"Vodra, Seia, São Romão e Lapa dos Dinheiros, Seia, Guarda, Portugal",Seia,Portugal,0.36,place,hamlet,40.4337156,-7.6874986,67.61045966406114
Várzea de Candosa,osm,1325119636,"Várzea, Candosa, Tábua, Coimbra, Portugal",Tábua,Portugal,0.47,place,hamlet,40.3585061,-7.9717089,42.11860321667476
"Várzea, Góis",osm,6553368,"Vila Nova do Ceira, Góis, Coimbra, Portugal",Góis,Portugal,0.361308416199056,boundary,administrative,40.1815792,-8.147207,23.91259427832509
Zedes,osm,3875483170,"Zedes, Carrazeda de Ansiães, Bragança, Portugal",Carrazeda de Ansiães,Portugal,0.3859490106750474,place,village,41.278778,-7.2980135,152.41449886197142
Águas Boas,osm,2493012124,"Águas Boas, Oiã, Oliveira do Bairro, Aveiro, Portugal",Oliveira do Bairro,Portugal,0.45,place,hamlet,40.5328203,-8.5660174,38.03927697483847
Óis do Bairro,osm,2508092297,"Óis do Bairro, Anadia, Aveiro, Portugal",Anadia,Portugal,0.5752446327297394,place,village,40.4325901,-8.4841254,25.48619066110144
Vilar Maior,osm,1089306646,"Vilar Maior, Aldeia da Ribeira, Vilar Maior e Badamalos, Sabugal, Guarda, Portugal","Aldeia da Ribeira, Vilar Maior e Badamalos",Portugal,0.475,place,village,40.474267,-6.938772,129.79238394155925
Vilalva,osm,7596144722,"Vilalva, Arroios, Vila Real, Vila Real, Portugal",Vila Real,Portugal,0.36,place,neighbourhood,41.2921994,-7.7272044,134.14140712912302
Vila real,osm,4202162,"Vila Real, Vila Real, Vila Real, Portugal",Vila Real,Portugal,0.4332286868188654,boundary,administrative,41.30292565,-7.741387790648096,134.69175080875513
"Vila Franca, Bragança",osm,1403385561,"Vila Franca, Sendas, Bragança, Bragança, Portugal",Bragança,Portugal,0.56,place,hamlet,41.6113849,-6.8537855,204.5755761834696
Vila Fresca de Azeitão,osm,1706528882,"Vila Fresca de Azeitão, Azeitão, Setúbal, Setúbal, Portugal",Setúbal,Portugal,0.6599999999999999,place,hamlet,38.5249172,-8.9965747,193.15779287300728
Vila Fria,osm,9026088269,"Vila Fria, Silva Escura e Dornelas, Sever do Vouga, Aveiro, Portugal",Sever do Vouga,Portugal,0.45,place,hamlet,40.7547419,-8.3856306,60.872862146940506
Vila Longa,osm,1346817666,"Vila Longa, Sátão, Viseu, Portugal",Sátão,Portugal,0.475,place,village,40.7488704,-7.5893667,92.9929202191234
Vila Nova da Baronia,osm,6431892,"Vila Nova da Baronia, Alvito, Beja, Portugal",Alvito,Portugal,0.75,boundary,administrative,38.2884663,-8.0378472,215.6610315424919
Vila Nova de Barca,osm,3892047397,"Quinta da Barca, Chãs, Vila Nova de Foz Coa, Guarda, Portugal",Chãs,Portugal,0.6,place,isolated_dwelling,40.9999736,-7.1103572,141.93043530607892
Vila Nova de Cernache,osm,8521961473,"Vila Nova, Cernache, Coimbra, Coimbra, Portugal",Coimbra,Portugal,0.56,place,hamlet,40.1306976,-8.4658785,9.171487864618346
Vila Nova de Paiva,osm,6422560,"Vila Nova de Paiva, Alhais e Fráguas, Vila Nova de Paiva, Viseu, Portugal","Vila Nova de Paiva, Alhais e Fráguas",Portugal,0.553150759043076,boundary,administrative,40.8495666,-7.740704378467555,91.9579879718178
Vila Nova de Santo André,osm,6445137,"São Francisco da Serra, Santiago do Cacém, Setúbal, Portugal",Santiago do Cacém,Portugal,0.270074815609084,boundary,administrative,38.0915493,-8.6641159,235.80050775323187
Vila Nova do Porto,osm,5189594425,"Vila Nova, Baltar, Paredes, Porto, PT-13, Portugal",Baltar,Portugal,0.56,place,hamlet,41.185243,-8.3909369,108.6255503580552
"Vila Seca, Armamar",osm,1409789372,"Vila Seca, Armamar, Viseu, Portugal",Armamar,Portugal,0.5718449554900855,place,village,41.1231925,-7.6625396,120.45367051921056
Vila de Alva,osm,6549086,"Vila Cova de Alva e Anseriz, Arganil, Coimbra, Portugal",Vila Cova de Alva e Anseriz,Portugal,0.4958710828992581,boundary,administrative,40.27276405,-7.940525643099514,41.9435003485748
Vila do Mato,osm,1325119551,"Vila do Mato, Midões, Tábua, Coimbra, Portugal",Tábua,Portugal,0.55,place,hamlet,40.4029659,-7.951882,45.78263705614797
Talhas,osm,5728039,"Talhas, Macedo de Cavaleiros, Bragança, Portugal",Macedo de Cavaleiros,Portugal,0.429018527529768,boundary,administrative,41.4894168,-6.6961784,203.8219395808695
Tadim,osm,4135212,"Tadim, Braga, Braga, Portugal",Braga,Portugal,0.4548154861214031,boundary,administrative,41.507258,-8.489617,144.44789695605553
Sítio da Nazaré,osm,2946311323,"Sítio da Nazaré, Nazaré, Nazaré, Leiria, Portugal",Nazaré,Portugal,0.5131303339921358,place,neighbourhood,39.6063558,-9.0756503,86.83202399583998
São Cristóvão do Douro,osm,3192039410,"São Cristóvão do Douro, Sabrosa, Vila Real, Portugal",Sabrosa,Portugal,0.6582184742933953,place,village,41.2076889,-7.5507689,133.44759891687488
São João do Campo,osm,3170418748,"Campo do Gerês, Campo do Gerês, Terras de Bouro, Braga, Portugal",Campo do Gerês,Portugal,0.4257940944999783,place,village,41.7587876,-8.1984725,173.34533931922073
"São João do Souto, Braga",osm,3149262425,"São João do Souto, São José de São Lázaro e São João do Souto, Braga, Braga, Portugal",Braga,Portugal,0.8333866831324339,place,suburb,41.5513791,-8.4252386,149.2485803974926
São Lourenço do Douro,osm,3969676598,"São Lourenço do Douro, Sande e São Lourenço do Douro, Marco de Canaveses, Porto, PT-13, Portugal",Sande e São Lourenço do Douro,Portugal,0.675,place,village,41.1017213,-8.1948408,101.2153708181484
São Mamede de Coronado,osm,1925417766,"São Mamede, Vila do Coronado, Coronado, Trofa, Porto, PT-13, Portugal",Coronado,Portugal,0.685,place,suburb,41.2748271,-8.5739705,119.1911568052723
São Mamede de Infesta,osm,292479061,"São Mamede de Infesta, Porto, PT-13, Portugal",São Mamede de Infesta,Portugal,0.75,place,city,41.1912232,-8.6106388,110.35800157029428
São Mamede de Recezinhos,osm,5928140,"Recezinhos (São Mamede), Penafiel, Porto, PT-13, Portugal",Penafiel,Portugal,0.7041234681398241,boundary,administrative,41.2388072,-8.2129207,115.93992210236748
São Mamede de Ribatua,osm,3192386677,"São Mamede de Ribatua, Alijó, Vila Real, Portugal",Alijó,Portugal,0.6793549821575413,place,village,41.2508952,-7.4318386,143.10909401380462
São Martinho das Chãs,osm,6333872,"São Martinho das Chãs, Armamar, Viseu, Portugal",Armamar,Portugal,0.6685144183561604,boundary,administrative,41.0725851,-7.6638322,115.70071014173892
"São Jorge, Arcos de Valdevez",osm,3814654072,"São Jorge, Arcos de Valdevez, Viana do Castelo, Portugal",Arcos de Valdevez,Portugal,0.7053717591619115,place,village,41.8245944,-8.3509378,179.7047696407483
"São Cristóvão de Nogueira, Cinfães",osm,6354423,"São Cristóvão de Nogueira, Cinfães, Viseu, Portugal",São Cristóvão de Nogueira,Portugal,0.7815966805698038,boundary,administrative,41.06322105,-8.125455103586397,98.37602704054105
São Varão,osm,7143874167,"Fazenda Varão, São Sebastião do Gil, Desterro de Entre Rios, Região Geográfica Imediata de Conselheiro Lafaiete, Minas Gerais, BR-MG, Região Sudeste, Brasil",Região Geográfica Imediata de Conselheiro Lafaiete,Brasil,0.3999999999999999,place,farm,-20.5593893,-44.1445685,7679.429407549881
Souselo,osm,6354422,"Souselo, Cinfães, Viseu, Portugal",Souselo,Portugal,0.3815966805698038,boundary,administrative,41.0641911,-8.230943939509245,96.56184462553944
Soutelinho,osm,1238664973,"Soutelinho, Favaios, Vila Real, Portugal",Favaios,Portugal,0.36,place,hamlet,41.2705555,-7.5301972,140.22401719729027
"Soutelo, Bragança",osm,1343883466,"Soutelo, Mogadouro, Bragança, Portugal",Mogadouro,Portugal,0.3908812954247281,place,village,41.3974952,-6.7304993,194.76539347568627
"Soutelo, Viseu",osm,1359420040,"Soutelo, Tendais, Cinfães, Viseu, Portugal",Cinfães,Portugal,0.47,place,hamlet,41.013758,-8.0285229,95.65040329473187
"Souto, Guarda",osm,6364294,"Souto, Sabugal, Guarda, Portugal",Souto,Portugal,0.5459285856241072,boundary,administrative,40.3572969,-6.9588448,125.87223451296468
Sá,osm,8777140606,"Sá, Tendais, Cinfães, Viseu, Portugal",Cinfães,Portugal,0.36,place,hamlet,41.0136852,-8.0655115,94.58736114143396
São  Cipriano,osm,1236393248,"São Cipriano, Serapicos, Valpaços, Vila Real, Portugal",Valpaços,Portugal,0.45,place,hamlet,41.6298455,-7.4412361,178.41756071283206
São  Miguel do Outeiro,osm,4196921483,"São Miguel do Outeiro, Tondela, Viseu, Portugal",Tondela,Portugal,0.675,place,village,40.5882178,-8.027917,54.13067505082898
São  Romão,osm,4253686350,"São Romão, Armamar, Viseu, Portugal",Armamar,Portugal,0.4372938346316069,place,village,41.0902639,-7.7082976,115.30803147682605
São Cipriano,osm,1236393248,"São Cipriano, Serapicos, Valpaços, Vila Real, Portugal",Valpaços,Portugal,0.45,place,hamlet,41.6298455,-7.4412361,178.41756071283206
São Cristovão,osm,6426083004,"São Cristóvão, Valbom, Porto, PT-13, Portugal",Valbom,Portugal,0.35,place,neighbourhood,41.1790844,-8.5544361,108.44581726980924
São Martinho de Recezinhos,osm,5928141,"Recezinhos (São Martinho), Penafiel, Porto, PT-13, Portugal",Penafiel,Portugal,0.6058720222757678,boundary,administrative,41.2269782,-8.218782,114.56585353411931
São Pedro da Torre,osm,4640269,"São Pedro da Torre, Valença, Viana do Castelo, Portugal",São Pedro da Torre,Portugal,0.6850481715152184,boundary,administrative,41.98429745,-8.6625534164347,198.33021193900817
São Pedro de Solis,osm,1271210840,"São Pedro de Solis, Mértola, Beja, Portugal",Mértola,Portugal,0.675,place,village,37.4916054,-7.9001737,304.9241349028842
São Pedro do Bairro,osm,238513125,"Bairro do Monte Crasto, Gondomar (São Cosme), Valbom e Jovim, Valbom, Porto, PT-13, Portugal",Valbom,Portugal,0.55,place,neighbourhood,41.13969175,-8.536915809622851,103.95014119418424
São Romão de Armamar,osm,4253686350,"São Romão, Armamar, Viseu, Portugal",Armamar,Portugal,0.547293834631607,place,village,41.0902639,-7.7082976,115.30803147682605
"São Romão, Guarda",osm,1723117290,"São Romão, Seia, Guarda, Portugal",Seia,Portugal,0.6100000000000001,place,town,40.400208,-7.7134162,64.25083707635072
São Tiago da Carreira,osm,5937402,"Guimarei, Santo Tirso, Porto, PT-13, Portugal",Santo Tirso,Portugal,0.3940287400552381,boundary,administrative,41.3029506,-8.4703708,121.7152299505257
São Tomé,osm,5726680163,"São Tomé, Santo Antão, Calheta, Açores, PT-20, Portugal",Calheta,Portugal,0.45,place,hamlet,38.5468061,-27.8363085,1679.2176291570183
"São Paulo, Angola",osm,4417176141,"Fazenda do Capim-angola, Paraibuna, Paraibuna, Região Imediata de São José dos Campos, Região Metropolitana do Vale do Paraíba e Litoral Norte, Região Geográfica Intermediária de São José dos Campos, São Paulo, Região Sudeste, Brasil",Paraibuna,Brasil,0.5,place,farm,-23.5667245,-45.5933976,8043.261318216089
São Miguel d'Acha,osm,3697326174,"São Miguel D'Acha, São Miguel de Acha, Idanha-a-Nova, Castelo Branco, Portugal",São Miguel de Acha,Portugal,0.675,place,village,40.0157136,-7.3222605,96.47620415584105
São Martinho do Peso,osm,5718029,"São Martinho do Peso, Mogadouro, Bragança, Portugal",Mogadouro,Portugal,0.75,boundary,administrative,41.4230189,-6.616733,203.7660324638705
"São Martinho, Guarda",osm,8263511012,"São Martinho, Trancoso, Trancoso, Guarda, Portugal",Trancoso,Portugal,0.56,place,hamlet,40.7833336,-7.3177534,113.6491016859869
"São Martinho, Penafiel",osm,5928140,"Recezinhos (São Mamede), Penafiel, Porto, PT-13, Portugal",Penafiel,Portugal,0.5141234681398241,boundary,administrative,41.2388072,-8.2129207,115.93992210236748
"São Martinho, Salreu",osm,1477607126,"São Martinho, Cadaval, Salreu, Estarreja, Aveiro, Portugal",Estarreja,Portugal,0.56,place,neighbourhood,40.7366008,-8.5636776,59.91057868632863
São Miguel de Fontoura,osm,5323885502,"Gramado São Miguel, Gramado São Pedro, Fontoura Xavier, Região Geográfica Imediata de Soledade, Região Geográfica Intermediária de Passo Fundo, Rio Grande do Sul, BR-RS, Região Sul, Brasil",Fontoura Xavier,Brasil,0.65,place,hamlet,-29.1083528,-52.3802456,8917.409919104497
"São Miguel, Poiares",osm,6553861,"São Miguel de Poiares, Vila Nova de Poiares, Coimbra, Portugal",Vila Nova de Poiares,Portugal,0.5318117876502598,boundary,administrative,40.218569,-8.2251224,17.14530993715027
Nogueirinha,osm,1325049623,"Nogueirinha, Meruge, Oliveira do Hospital, Coimbra, Portugal",Oliveira do Hospital,Portugal,0.36,place,hamlet,40.3841395,-7.8154971,55.49288150010632
Negrote,osm,1682340799,"Negrote, Alqueidão, Figueira da Foz, Coimbra, Portugal",Figueira da Foz,Portugal,0.36,place,hamlet,40.0902336,-8.7818684,32.99665065387451
Campeã,osm,4202131,"Campeã, Vila Real, Vila Real, Portugal",Campeã,Portugal,0.4440805778876783,boundary,administrative,41.28388585,-7.886913120028085,127.91668253720376
"Campinas, Brasil",osm,4083156914,"Campinas, Sumidouro, Região Geográfica Imediata de Nova Friburgo, Região Geográfica Intermediária de Petrópolis, Rio de Janeiro, BR-RJ, Região Sudeste, Brasil",Sumidouro,Brasil,0.495,place,suburb,-22.1635605,-42.6633545,7764.234421314329
Campizes,osm,4006753313,"Campizes, Ega, Condeixa-a-Nova, Coimbra, Portugal",Condeixa-a-Nova,Portugal,0.36,place,hamlet,40.1187506,-8.5522037,14.578284608743491
Candemil,osm,1810921925,"Candemil, Vila Nova de Cerveira, Viana do Castelo, Portugal",Vila Nova de Cerveira,Portugal,0.3643651946830114,place,village,41.9302074,-8.6878286,192.58542801988105
Candoso,osm,4102669,"Guimarães, Braga, Portugal",Guimarães,Portugal,0.2354202226614238,boundary,administrative,41.4252582,-8.317995764004479,135.54776320777867
Caparrosinha,osm,3841946904,"Caparrosinha, Marmeleira, Mortágua, Viseu, Portugal",Mortágua,Portugal,0.36,place,hamlet,40.3739386,-8.2372495,24.484259389916616
Carapinhal,osm,5476733866,"Carapinhal, São Martinho da Cortiça, Arganil, Coimbra, Portugal",Arganil,Portugal,0.36,place,hamlet,40.2842074,-8.1485296,25.101745173218724
Carrascos,osm,3336096672,"Carrascos, Alvados e Alcaria, Porto de Mós, Leiria, Portugal",Porto de Mós,Portugal,0.36,place,hamlet,39.5483891,-8.7610491,78.58683652044895
Carrazedo,osm,5162724520,"Carrazedo, São Cristóvão de Mondim de Basto, Mondim de Basto, Vila Real, Portugal",Mondim de Basto,Portugal,0.36,place,hamlet,41.4008918,-7.9357768,138.8400352056473
Carriço,osm,3336105069,"Carriço, Alvados e Alcaria, Porto de Mós, Leiria, Portugal",Porto de Mós,Portugal,0.3099999999999999,place,isolated_dwelling,39.5434743,-8.7711444,79.41257585997027
Cambezes,osm,433998558,"Cambeses do Rio, Montalegre, Vila Real, Portugal",Montalegre,Portugal,0.2850481715152184,place,village,41.8038228,-7.8381634,184.05363420930087
Calvinos,osm,8711599089,"Calvinos, Casais e Alviobeira, Tomar, Santarém, Portugal",Tomar,Portugal,0.36,place,hamlet,39.6771445,-8.377331,59.02534075966263
Calheiros,osm,5713278,"Calheiros, Ponte de Lima, Viana do Castelo, Portugal",Calheiros,Portugal,0.4454292618867608,boundary,administrative,41.81373735,-8.571007026518753,178.80440849126032
"Brasil, Pernambuco",osm,4562893146,"Pernambuco, Concórdia do Pará, Concórdia do Pará, Região Geográfica Imediata de Belém, Região Geográfica Intermediária de Belém, Pará, BR-PA, Região Norte, Brasil",Concórdia do Pará,Brasil,0.47,place,hamlet,-1.8653383,-48.0385117,6155.920982330687
Brunhais,osm,5162829615,"Brunhais, Mesão Frio (Santo André), Mesão Frio, Vila Real, Portugal",Mesão Frio (Santo André),Portugal,0.36,place,hamlet,41.1695123,-7.8810597,116.3448175979393
Brunhido,osm,1233382687,"Brunhido, Valongo do Vouga, Águeda, Aveiro, Portugal",Águeda,Portugal,0.36,place,hamlet,40.6311103,-8.4301728,47.0488240210347
Brunhos,osm,4008428823,"Brunhós, Soure, Coimbra, Portugal",Soure,Portugal,0.275,place,village,40.1161822,-8.6699489,23.120075156216195
Burgo,osm,3809325463,"Burgo, Bela, Monção, Viana do Castelo, Portugal",Bela,Portugal,0.36,place,neighbourhood,42.0604499,-8.4224608,205.79102934372
"Bustelo, Porto",osm,5830096,"Bustelo, Carneiro e Carvalho de Rei, Amarante, Porto, PT-13, Portugal","Bustelo, Carneiro e Carvalho de Rei",Portugal,0.4408608703737879,boundary,administrative,41.22178435,-7.995170952987229,118.37929728763736
Bustos,osm,6022049,"Bustos, Troviscal e Mamarrosa, Oliveira do Bairro, Aveiro, Portugal",Oliveira do Bairro,Portugal,0.3005083629626833,boundary,administrative,40.4927408,-8.58036759969992,34.2890978017784
Cabeçudos,osm,1609294130,"Cabeçudos, Santo António das Areias, Marvão, Portalegre, Portugal",Marvão,Portugal,0.36,place,hamlet,39.4190346,-7.3630519,126.27720596010371
Cabeção,osm,6439708,"Cabeção, Mora, Évora, Portugal",Mora,Portugal,0.3845321115064417,boundary,administrative,38.951605,-8.0718537,142.70999416563544
Cagido,osm,5316738170,"Cagido, Ovoa e Vimieiro, Santa Comba Dão, Viseu, Portugal",Santa Comba Dão,Portugal,0.36,place,neighbourhood,40.3722311,-8.1362987,30.687818733944333
"Carção, Bragança",osm,1092201501,"Carção, Vimioso, Bragança, Portugal",Vimioso,Portugal,0.6015239913351833,place,village,41.5928174,-6.5876654,218.31190859107983
Bouças,osm,3448836788,"Bouças, Landim, Vila Nova de Famalicão, Braga, Portugal",Landim,Portugal,0.36,place,neighbourhood,41.3813009,-8.4722119,130.41749680809923
Cernache de Bonjardim,osm,12852816,"Cernache do Bonjardim, Nesperal e Palhais, Sertã, Castelo Branco, Portugal",Sertã,Portugal,0.4053717591619116,boundary,administrative,39.79149,-8.220043012149954,49.4184697171309
Ceuta,osm,7780221091,"Ceuta Sul, Prazeres, Estrela, Lisboa, Lisboa, Portugal",Lisboa,Portugal,0.35,place,neighbourhood,38.7117645,-9.1745979,178.11248274548774
Cheires,osm,1238664744,"Cheires, Sanfins do Douro, Vila Real, Portugal",Sanfins do Douro,Portugal,0.36,place,hamlet,41.2834886,-7.5382438,141.0691434357324
Chã,osm,6522244874,"Chã, Penacova, Penacova, Coimbra, Portugal",Penacova,Portugal,0.36,place,hamlet,40.2966719,-8.2903004,15.215491788808706
Cioga,osm,3995663851,"Cioga do Campo, São João do Campo, Coimbra, Coimbra, Portugal",Coimbra,Portugal,0.35,place,hamlet,40.2398743,-8.5249269,9.158533974164
Claros,osm,4417176410,"Claros, Varginha, Itapetininga, Região Imediata de Itapetininga, Região Metropolitana de Sorocaba, Região Geográfica Intermediária de Sorocaba, São Paulo, Região Sudeste, Brasil",Itapetininga,Brasil,0.385,place,suburb,-23.8139803,-48.3177705,8205.599899334598
Codal,osm,1226766250,"Codal, Vale de Cambra, Aveiro, Portugal",Vale de Cambra,Portugal,0.3785144183561604,place,village,40.8647076,-8.4145298,72.99472134907533
Coimbrões,osm,5874051813,"Coimbrões, São João de Lourosa, Viseu, Viseu, Portugal",Viseu,Portugal,0.36,place,hamlet,40.6223421,-7.8795488,65.37495202568672
"Coja, Arganil",osm,1121986294,"Côja, Côja e Barril de Alva, Arganil, Coimbra, Portugal",Côja e Barril de Alva,Portugal,0.3906663592762519,place,village,40.2686059,-7.9872527,37.94923300305059
Condeixa a Nova,osm,5379539,"Condeixa-a-Nova, Coimbra, Portugal",Condeixa-a-Nova,Portugal,0.7212025191455594,boundary,administrative,40.1153481,-8.4998828,12.00573657377522
"Condeixa, Coimbra",osm,4081490,"Condeixa-a-Velha e Condeixa-a-Nova, Condeixa-a-Nova, Coimbra, Portugal",Condeixa-a-Nova,Portugal,0.391472839091896,boundary,administrative,40.100258800000006,-8.474536610768315,12.597178584280226
Contenças de Baixo,osm,1304591702,"Contenças de Baixo, Santiago de Cassurrães e Póvoa de Cervães, Mangualde, Viseu, Portugal",Mangualde,Portugal,0.55,place,hamlet,40.5617717,-7.7177545,71.86749282371402
Contige,osm,1592188342,"Contige, Sátão, Sátão, Viseu, Portugal",Sátão,Portugal,0.36,place,hamlet,40.7318113,-7.7518209,81.60640180369428
Cortiço de Algodres,osm,1761040293,"Cortiçô, Cortiço e Vila Chã, Fornos de Algodres, Guarda, Portugal",Cortiço e Vila Chã,Portugal,0.5533630197666373,place,village,40.663257,-7.4938472,93.90200701509748
"Cernache, Coimbra",osm,1412664037,"Cernache, Coimbra, Coimbra, Portugal",Coimbra,Portugal,0.495,place,village,40.1379404,-8.4691011,8.543940619002463
Casa Branca,osm,5725360637,"Casa Branca, Alcácer do Sal e Santa Susana, Alcácer do Sal, Setúbal, Portugal",Alcácer do Sal e Santa Susana,Portugal,0.3999999999999999,place,farm,38.4330853,-8.3179379,197.2099804592578
Casal de Abade,osm,1835518366,"Casal de Abade, Sanguñedo, Verea, Terra da Celanova, Ourense, ES-OR, Galicia, ES-GA, España",Verea,España,0.55,place,hamlet,42.0923887,-7.9159985,213.67003846312613
Casal de Ermio,osm,2651242684,"Casal de Ermio, Foz de Arouce e Casal de Ermio, Lousã, Coimbra, Portugal",Foz de Arouce e Casal de Ermio,Portugal,0.5288763567136218,place,village,40.1536924,-8.2512014,16.038535208956095
Casal de Loivos,osm,3192386667,"Casal de Loivos, Alijó, Vila Real, Portugal",Alijó,Portugal,0.453150759043076,place,village,41.2002494,-7.5340482,133.55533927169822
"Cascais, Lisboa",osm,25611736,"Cascais, Cascais e Estoril, Cascais, Lisboa, Portugal",Cascais e Estoril,Portugal,0.52,place,town,38.6968919,-9.4204495,188.28195488971423
Castanheira de Pêra,osm,5399200,"Castanheira de Pera, Leiria, Portugal",Castanheira de Pera,Portugal,0.6058364928800134,boundary,administrative,40.01809415,-8.204468901443503,28.260203973260342
Cavalões,osm,3012440221,"Cavalões, Vila Nova de Famalicão, Braga, Portugal",Vila Nova de Famalicão,Portugal,0.337354491752902,place,village,41.4203873,-8.5681414,135.23290772358223
Cavernães,osm,6443614,"Cavernães, Viseu, Viseu, Portugal",Viseu,Portugal,0.4599999999999999,boundary,administrative,40.7087815,-7.8277373,75.32902596642374
Cedofeita,osm,3382149,"Cedofeita, Santo Ildefonso, Sé, Miragaia, São Nicolau e Vitória, Porto, Porto, PT-13, Portugal",Porto,Portugal,0.392582546755277,boundary,administrative,41.1532235,-8.61405664654131,106.2254510320907
Cedrim,osm,1111891907,"Cedrim, Sever do Vouga, Aveiro, Portugal",Sever do Vouga,Portugal,0.385,place,village,40.7111516,-8.3392655,56.41761820254612
Cedães,osm,5735857,"Cedães, Mirandela, Bragança, Portugal",Mirandela,Portugal,0.4268930617533198,boundary,administrative,41.4727739,-7.1084859,179.1383429563021
Bragado,osm,4195168,"Bragado, Vila Pouca de Aguiar, Vila Real, Portugal",Vila Pouca de Aguiar,Portugal,0.4040287400552381,boundary,administrative,41.5837616,-7.645025,166.4093058661701
Bouça,osm,8618919743,"Bouça, Bico, Amares, Braga, Portugal",Amares,Portugal,0.36,place,neighbourhood,41.6444709,-8.4092241,159.59410902668736
Cotas,osm,2651179530,"Cotas, Degracias e Pombalinho, Soure, Coimbra, Portugal",Soure,Portugal,0.36,place,hamlet,40.0054231,-8.4871334,23.02689727401468
"Almada, Lisboa",osm,3716948725,"Almada, Mafra, Mafra, Lisboa, Portugal",Mafra,Portugal,0.47,place,neighbourhood,38.9298385,-9.3433733,162.27513663190908
Almagreira,osm,7540287,"Almagreira, Vila do Porto, Açores, PT-20, Portugal",Vila do Porto,Portugal,0.3403615466364414,boundary,administrative,36.9660977,-25.1092612,1494.9527421962937
Almodovar,osm,25264848,"Almodôvar, Almodôvar e Graça dos Padrões, Almodôvar, Beja, Portugal",Almodôvar e Graça dos Padrões,Portugal,0.3,place,town,37.511607,-8.0603168,300.94768868728
Alvados,osm,3336096671,"Alvados, Porto de Mós, Leiria, Portugal",Porto de Mós,Portugal,0.385,place,village,39.5496799,-8.7696617,78.72545613057616
Alvarães,osm,3303519842,"Alvarães, Alvarães, Viana do Castelo, Viana do Castelo, Portugal",Alvarães,Portugal,0.41,place,town,41.642535,-8.7428802,161.5919960438019
Alvega,osm,1755875794,"Alvega, Abrantes, Santarém, Portugal",Abrantes,Portugal,0.385,place,village,39.4646559,-8.0421781,88.77356233903252
