naturalidade,geocoder,id,address,city,country,importance,class,type,latitude,longitude,distance
A de Barros,osm,3227138297,"A-de-Barros, Penso, Penso e Freixinho, Sernancelhe, Viseu, Portugal",Penso e Freixinho,Portugal,0.55,place,hamlet,40.9264201,-7.5515775,108.89311916248862
Abiul,osm,6548139,"Abiul, Pombal, Leiria, Portugal",Pombal,Portugal,0.4145652793462674,boundary,administrative,39.8727636,-8.5389924,38.389730078690945
Abiúl,osm,6548139,"Abiul, Pombal, Leiria, Portugal",Pombal,Portugal,0.3045652793462674,boundary,administrative,39.8727636,-8.5389924,38.389730078690945
Abragão,osm,5928123,"Abragão, Penafiel, Porto, PT-13, Portugal",Penafiel,Portugal,0.43306144544168335,boundary,administrative,41.1583743,-8.2247687,106.96252745529834
Abrantes,osm,5400339,"Abrantes, Santarém, Portugal",Abrantes,Portugal,0.5724117577924412,boundary,administrative,39.4631905,-8.1973618,84.9191110497895
Abrunheira,osm,1426387562,"Abrunheira, Montemor-o-Velho, Coimbra, Portugal",Montemor-o-Velho,Portugal,0.385,place,village,40.1193315,-8.7263414,27.391740595411513
Abrunhosa,osm,1535456275,"Abrunhosa, São Miguel de Vila Boa, Sátão, Viseu, Portugal",Sátão,Portugal,0.36,place,hamlet,40.7066114,-7.7389142,80.43112257318238
Adaúfe,osm,4133694,"Adaúfe, Braga, Braga, Portugal",Braga,Portugal,0.4688882901947148,boundary,administrative,41.5852662,-8.3947217,153.03493462766534
Aguada de Baixo,osm,1218787478,"Aguada de Baixo, Águeda, Aveiro, Portugal",Águeda,Portugal,0.6112347422123424,place,village,40.510466,-8.4519582,33.72262021385856
Aguada de Cima,osm,6017810,"Aguada de Cima, Águeda, Aveiro, Portugal",Águeda,Portugal,0.626239076957718,boundary,administrative,40.5169467,-8.4158179,34.381005274240636
Aguda,osm,6546627,"Aguda, Figueiró dos Vinhos, Leiria, Portugal",Figueiró dos Vinhos,Portugal,0.45999999999999996,boundary,administrative,39.9071926,-8.3316532,34.29441086446281
Aguiar,osm,3082696868,"Aguiar, Barcelos, Braga, Portugal",Barcelos,Portugal,0.46589946705198937,place,village,41.6265225,-8.6540794,158.7610808810946
Aguiar da Beira,osm,5331731,"Aguiar da Beira, Guarda, Portugal",Aguiar da Beira,Portugal,0.7198611735075304,boundary,administrative,40.81718,-7.54312,100.91308544743222
Aguieira,osm,5329995675,"Aguieira, Oliveira do Mondego e Travanca do Mondego, Penacova, Coimbra, Portugal",Penacova,Portugal,0.36,place,hamlet,40.3374672,-8.2045019,23.736985665540356
Aguim,osm,2504803778,"Aguim, Anadia, Aveiro, Portugal",Anadia,Portugal,0.3893549821575414,place,village,40.4157174,-8.4485461,23.208495012807653
Alandroal,osm,5402657,"Alandroal, Évora, Portugal",Alandroal,Portugal,0.5229821358312804,boundary,administrative,38.60240485,-7.384427441025773,199.4984506477844
Albergaria,osm,1717830200,"Albergaria, Assafarge e Antanhol, Coimbra, Coimbra, Portugal",Coimbra,Portugal,0.36,place,hamlet,40.1695115,-8.4775053,6.079112540543085
Albergaria a Velha,osm,1325870037,"Albergaria-a-Velha, Albergaria-a-Velha, Aveiro, Portugal",Albergaria-a-Velha,Portugal,0.7289244284921141,place,city,40.6906888,-8.4792205,53.853084653316344
Albergaria-a-Velha,osm,1325870037,"Albergaria-a-Velha, Albergaria-a-Velha, Aveiro, Portugal",Albergaria-a-Velha,Portugal,0.7289244284921141,place,city,40.6906888,-8.4792205,53.853084653316344
Albufeira,osm,5404101,"Albufeira, Faro, PT-08, Portugal",Albufeira,Portugal,0.5675323351255528,boundary,administrative,37.144524000000004,-8.214588148218034,340.5073806365312
Alcafache,osm,6354634,"Alcafache, Mangualde, Viseu, Portugal",Mangualde,Portugal,0.4136784669331538,boundary,administrative,40.5958198,-7.8596783,64.58605111102875
Alcafozes,osm,439771762,"Alcafozes, Idanha-a-Nova e Alcafozes, Idanha-a-Nova, Castelo Branco, Portugal",Idanha-a-Nova e Alcafozes,Portugal,0.385,place,village,39.9488086,-7.1196025,115.07058351885959
Alcaide,osm,5328390,"Alcaide, Fundão, Castelo Branco, Portugal",Fundão,Portugal,0.429018527529768,boundary,administrative,40.1324137,-7.4400816,84.39413705095224
Alcains,osm,5452750,"Alcains, Castelo Branco, Castelo Branco, Portugal",Alcains,Portugal,0.44071797678099855,boundary,administrative,39.9151369,-7.4614654,88.45970955343039
Alcanede,osm,6482764,"Alcanede, Santarém, Santarém, Portugal",Santarém,Portugal,0.44880366747900136,boundary,administrative,39.4147304,-8.8213206,94.29818907490434
Alcanena,osm,5400340,"Alcanena, Santarém, Portugal",Alcanena,Portugal,0.5314012266772945,boundary,administrative,39.4806183,-8.682343283588914,83.62730178734442
Alcongosta,osm,5318965,"Alcongosta, Fundão, Castelo Branco, Portugal",Fundão,Portugal,0.42689306175331987,boundary,administrative,40.1166567,-7.4822713,81.02692995200147
Alcantarilha,osm,1069590029,"Alcantarilha, Alcantarilha e Pêra, Silves, Faro, PT-08, Portugal",Alcantarilha e Pêra,Portugal,0.41000000000000003,place,town,37.1300756,-8.3478593,341.6814926697285
Alcaíde,osm,5328390,"Alcaide, Fundão, Castelo Branco, Portugal",Fundão,Portugal,0.31901852752976795,boundary,administrative,40.1324137,-7.4400816,84.39413705095224
Alcobaça,osm,5399253,"Alcobaça, Leiria, Portugal",Alcobaça,Portugal,0.5643613225436059,boundary,administrative,39.5519199,-8.9763396,86.68009198600842
Alcochete,osm,5401733,"Alcochete, Setúbal, Portugal",Alcochete,Portugal,0.539448962716662,boundary,administrative,38.7560499,-8.9608437,167.57857798308976
Alcoentre,osm,6519454,"Alcoentre, Azambuja, Lisboa, Portugal",Azambuja,Portugal,0.45999999999999996,boundary,administrative,39.2078257,-8.9572359,119.96980866965042
Alcofra,osm,6166338,"Alcofra, Vouzela, Viseu, Portugal",Vouzela,Portugal,0.3950481715152184,boundary,administrative,40.6252803,-8.1818787,50.81597191133048
Alcongosta,osm,5318965,"Alcongosta, Fundão, Castelo Branco, Portugal",Fundão,Portugal,0.42689306175331987,boundary,administrative,40.1166567,-7.4822713,81.02692995200147
Alcouce,osm,3913196326,"Alcouce, Vila Seca e Bem da Fé, Condeixa-a-Nova, Coimbra, Portugal",Condeixa-a-Nova,Portugal,0.36,place,hamlet,40.112892,-8.4158955,10.531658956146437
Alcoutim,osm,5404218,"Alcoutim, Faro, PT-08, Portugal",Alcoutim,Portugal,0.5320589959875693,boundary,administrative,37.402329300000005,-7.6690393944051864,318.26064182461624
Alcácer,osm,5401847,"Alcácer do Sal, Setúbal, Portugal",Alcácer do Sal,Portugal,0.5501118932829929,boundary,administrative,38.365989299999995,-8.531313383677643,204.6394021929688
Alcácer do Sal,osm,5401847,"Alcácer do Sal, Setúbal, Portugal",Alcácer do Sal,Portugal,0.750111893282993,boundary,administrative,38.365989299999995,-8.531313383677643,204.6394021929688
Alcáçovas,osm,6440046,"Alcáçovas, Viana do Alentejo, Évora, Portugal",Viana do Alentejo,Portugal,0.4136784669331538,boundary,administrative,38.3940999,-8.1533306,202.68624289970046
"Alcântara, Maranhão",osm,415524232,"Alcântara, Alcântara, Região Geográfica Imediata de São Luís, Região Geográfica Intermediária de São Luís, Maranhão, Região Nordeste, Brasil",Alcântara,Brasil,0.666698846968445,place,town,-2.4084996,-44.4174143,5972.922764643965
"Alcântara, Maranhão, Brasil",osm,415524232,"Alcântara, Alcântara, Região Geográfica Imediata de São Luís, Região Geográfica Intermediária de São Luís, Maranhão, Região Nordeste, Brasil",Alcântara,Brasil,0.7766988469684449,place,town,-2.4084996,-44.4174143,5972.922764643965
Aldeia Galega,osm,4359786175,"Aldeia Galega, Alenquer, Lisboa, Portugal",Alenquer,Portugal,0.47500000000000003,place,village,39.0829886,-9.1117742,138.02289484603554
Aldeia Gavinha,osm,4359786176,"Aldeia Gavinha, Alenquer, Lisboa, Portugal",Alenquer,Portugal,0.47500000000000003,place,village,39.0840838,-9.0951703,137.3105740113172
Aldeia Nova,osm,6372234,"Aldeia Nova, Trancoso, Guarda, Portugal",Trancoso,Portugal,0.55,boundary,administrative,40.7091514,-7.4314836,101.09222421291084
Aldeia Nova das Donas,osm,1180242645,"Donas, União do Grande Fundão, Fundão, Castelo Branco, Portugal",União do Grande Fundão,Portugal,0.4099978272098044,place,village,40.1306529,-7.4750917,81.44831826747361
Aldeia Nova do Cabo,osm,3334754029,"Aldeia Nova do Cabo, União do Grande Fundão, Fundão, Castelo Branco, Portugal",União do Grande Fundão,Portugal,0.675,place,village,40.1331959,-7.529372,76.81932031631733
Aldeia da Cruz,osm,6023459744,"Aldeia da Cruz, Figueiró dos Vinhos e Bairradas, Figueiró dos Vinhos, Leiria, Portugal",Figueiró dos Vinhos,Portugal,0.55,place,hamlet,39.9298838,-8.2822182,33.16813811823282
Aldeia da Mata,osm,6440204,"Aldeia da Mata, Crato, Portalegre, Portugal",Crato,Portugal,0.5523442792274319,boundary,administrative,39.3041734,-7.7296753,116.69739742776534
Aldeia da Ponte,osm,6364279,"Aldeia da Ponte, Sabugal, Guarda, Portugal",Sabugal,Portugal,0.6415213678433922,boundary,administrative,40.4145157,-6.8697975,134.2675893648167
Aldeia das Dez,osm,6553521,"Aldeia das Dez, Oliveira do Hospital, Coimbra, Portugal",Oliveira do Hospital,Portugal,0.6186693345312295,boundary,administrative,40.2947706,-7.8657308,48.64477908099683
Aldeia de João Pires,osm,440123963,"Aldeia de João Pires, Aldeia do Bispo, Águas e Aldeia de João Pires, Penamacor, Castelo Branco, Portugal","Aldeia do Bispo, Águas e Aldeia de João Pires",Portugal,0.675,place,village,40.1030603,-7.152706,109.10131477716875
Aldeia de Nogueira,osm,3066351309,"Aldeia de Irmãos, Azeitão, Setúbal, Setúbal, Portugal",Setúbal,Portugal,0.45,place,hamlet,38.5106569,-9.03002,195.43811446258525
Aldeia do Mato,osm,1933394007,"Aldeia do Mato, Abrantes, Santarém, Portugal",Abrantes,Portugal,0.5750000000000001,place,village,39.5431069,-8.2728369,74.91518123353511
Alenquer,osm,5400756,"Alenquer, Lisboa, Portugal",Alenquer,Portugal,0.5455758794052963,boundary,administrative,39.056633,-9.0076057,137.17806077404404
Alfandega da Fé,osm,5246326,"Alfândega da Fé, Bragança, Portugal",Alfândega da Fé,Portugal,0.6210696906472228,boundary,administrative,41.3419743,-6.9611439,176.5358623156567
Alfarelos,osm,6553743,"Alfarelos, Coimbra, Portugal",Alfarelos,Portugal,0.40402874005523814,boundary,administrative,40.1498521,-8.6533065,20.38769448446699
Alfeizerão,osm,6544457,"Alfeizerão, Alcobaça, Leiria, Portugal",Alcobaça,Portugal,0.45999999999999996,boundary,administrative,39.48832375,-9.100313578520815,98.51445415462332
Alfândega da Fé,osm,5246326,"Alfândega da Fé, Bragança, Portugal",Alfândega da Fé,Portugal,0.7210696906472229,boundary,administrative,41.3419743,-6.9611439,176.5358623156567
Algarve,osm,7635285,"Algarve, Alvorada, Alvorada, Região Geográfica Imediata de Porto Alegre, Região Metropolitana de Porto Alegre, Região Geográfica Intermediária de Porto Alegre, Rio Grande do Sul, Região Sul, Brasil",Alvorada,Brasil,0.36,boundary,administrative,-30.0344297,-51.0790679,8937.030599139265
Algodres,osm,6384613,"Algodres, Vale de Afonsinho e Vilar de Amargo, Figueira de Castelo Rodrigo, Guarda, Portugal",Figueira de Castelo Rodrigo,Portugal,0.45999999999999996,boundary,administrative,40.937529,-7.035253668872958,142.9706483656343
Algoso,osm,1512524198,"Algoso, Vimioso, Bragança, Portugal",Vimioso,Portugal,0.385,place,village,41.470238,-6.575524,209.8089152225053
Algoz,osm,1160992703,"Algoz, Algoz e Tunes, Silves, Faro, PT-08, Portugal",Algoz e Tunes,Portugal,0.38381125651268033,place,town,37.1639299,-8.3026237,338.02707634006794
Alhadas,osm,6552934,"Alhadas, Figueira da Foz, Coimbra, Portugal",Figueira da Foz,Portugal,0.4095218989809717,boundary,administrative,40.1898767,-8.7838465,30.531078120050203
Alhandra,osm,1536421679,"Alhandra, Alhandra, São João dos Montes e Calhandriz, Vila Franca de Xira, Lisboa, Portugal","Alhandra, São João dos Montes e Calhandriz",Portugal,0.42201987893667336,place,town,38.9287073,-9.0077932,150.51490736806556
Alhos Vedros,osm,6444778,"Alhos Vedros, Setúbal, Portugal",Alhos Vedros,Portugal,0.489139026272805,boundary,administrative,38.6561131,-9.0246288,179.77705385472916
Alijó,osm,4204550,"Alijó, Vila Real, Portugal",Alijó,Portugal,0.5343074308132381,boundary,administrative,41.2768619,-7.4753795,143.3529932126841
Aljubarrota,osm,6544475,"Aljubarrota, Alcobaça, Leiria, Portugal",Alcobaça,Portugal,0.43403205446780413,boundary,administrative,39.5663818,-8.9305256,83.23624682859052
Aljustrel,osm,5403265,"Aljustrel, Beja, Portugal",Aljustrel,Portugal,0.5419509903862209,boundary,administrative,37.89032505,-8.196355048795365,258.00260223625196
Almada,osm,25619073,"Almada, Almada, Setúbal, Portugal",Almada,Portugal,0.5938207168116162,place,city,38.6831302,-9.1576301,180.5697367840115
Almalaguês,osm,6386144,"Almalaguês, Coimbra, Coimbra, Portugal",Coimbra,Portugal,0.45999999999999996,boundary,administrative,40.1356646,-8.3916167,8.489111828506484
Almaça,osm,4271594433,"Almaça, Mortágua, Viseu, Portugal",Mortágua,Portugal,0.35698155929085723,place,village,40.3417562,-8.2177992,23.15320558333052
Almeida,osm,4127531,"Almeida, Guarda, Portugal",Almeida,Portugal,0.5548283560306343,boundary,administrative,40.7263333,-6.9067513,141.1418634418304
Almeidinha,osm,1893395910,"Almeidinha, Guarda, Guarda, Portugal",Guarda,Portugal,0.385,place,village,40.5981994,-7.1259412,118.58496173394427
Almeirim,osm,5400564,"Almeirim, Santarém, Portugal",Almeirim,Portugal,0.5409396794654167,boundary,administrative,39.16800295,-8.572597770930125,116.08832936350674
Almendra,osm,6393399,"Almendra, Vila Nova de Foz Coa, Guarda, Portugal",Almendra,Portugal,0.4179901826057103,boundary,administrative,41.0007794,-7.0561126,145.61350028220934
Almodôvar,osm,5403266,"Almodôvar, Beja, Portugal",Almodôvar,Portugal,0.5411093878774799,boundary,administrative,37.47508055,-8.070988093407168,304.8851670301117
Almofala,osm,6338918,"Almofala, Castro Daire, Viseu, Portugal",Castro Daire,Portugal,0.3932082617679252,boundary,administrative,40.9541684,-7.7933527,98.71774137737309
Almoster,osm,6544564,"Almoster, Alvaiázere, Leiria, Portugal",Alvaiázere,Portugal,0.45999999999999996,boundary,administrative,39.8433694,-8.4503903,40.47619211105189
Alpalhão,osm,6440332,"Alpalhão, Nisa, Portalegre, Portugal",Nisa,Portugal,0.3979976529248165,boundary,administrative,39.4175854,-7.6195614,111.6186737180974
"Alpalhão, Portalegre",osm,6440332,"Alpalhão, Nisa, Portalegre, Portugal",Nisa,Portugal,0.5079976529248165,boundary,administrative,39.4175854,-7.6195614,111.6186737180974
Alpedrinha,osm,5317916,"Alpedrinha, Fundão, Castelo Branco, Portugal",Fundão,Portugal,0.4401392645537533,boundary,administrative,40.0988978,-7.4678978,82.5174125955429
Alpedriz,osm,699179128,"Alpedriz, Alcobaça, Leiria, Portugal",Alcobaça,Portugal,0.385,place,village,39.62843,-8.9499301,78.35344915448259
Alqueidão,osm,6552935,"Alqueidão, Figueira da Foz, Coimbra, Portugal",Figueira da Foz,Portugal,0.45999999999999996,boundary,administrative,40.0971308,-8.7734572,32.03740654273868
Alqueidão da Serra,osm,6548201,"Alqueidão da Serra, Porto de Mós, Leiria, Portugal",Porto de Mós,Portugal,0.65,boundary,administrative,39.6160908,-8.7833112,72.41697646102706
Alquerubim,osm,6018070,"Alquerubim, Albergaria-a-Velha, Aveiro, Portugal",Albergaria-a-Velha,Portugal,0.38308187049262343,boundary,administrative,40.6211753,-8.5090385,46.48163488667437
Alter do Chão,osm,5397419,"Alter do Chão, Portalegre, Portugal",Alter do Chão,Portugal,0.7169455839873609,boundary,administrative,39.223624,-7.734862206115043,124.27035394202272
Alter-do-Chão,osm,5397419,"Alter do Chão, Portalegre, Portugal",Alter do Chão,Portugal,0.7169455839873609,boundary,administrative,39.223624,-7.734862206115043,124.27035394202272
Alvarelhos,osm,4006933072,"Alvarelhos, Alvarelhos e Guidões, Trofa, Porto, PT-13, Portugal",Alvarelhos e Guidões,Portugal,0.3672775033536223,place,village,41.3107904,-8.6115389,123.52567991927386
Alvares,osm,6553366,"Alvares, Góis, Coimbra, Portugal",Góis,Portugal,0.37358119422996994,boundary,administrative,40.0176126,-8.0994536,34.91741730570172
Alvarim,osm,1419945759,"Alvarim, Belazaima do Chão, Castanheira do Vouga e Agadão, Águeda, Aveiro, Portugal",Águeda,Portugal,0.36,place,hamlet,40.5407874,-8.3870688,37.16488689367987
Alvações do Corgo,osm,4203502,"Alvações do Corgo, Santa Marta de Penaguião, Vila Real, Portugal",Santa Marta de Penaguião,Portugal,0.5031303339921358,boundary,administrative,41.1969535,-7.7538234,123.70005916013889
Alvelos,osm,4054088,"Alvelos, Barcelos, Braga, Portugal",Barcelos,Portugal,0.4920271157566978,boundary,administrative,41.503997,-8.6213015,144.9245782039382
Alverca,osm,1297322484,"Alverca do Ribatejo, Vila Franca de Xira, Lisboa, Portugal",Alverca do Ribatejo,Portugal,0.44999999999999996,place,city,38.8935253,-9.0396136,155.1167202305281
Alvito,osm,5403267,"Alvito, Beja, Portugal",Alvito,Portugal,0.5335457436805966,boundary,administrative,38.255967,-7.9918028,219.86928274856092
Alvorge,osm,6544999,"Alvorge, Ansião, Leiria, Portugal",Ansião,Portugal,0.38453211150644173,boundary,administrative,39.9798987,-8.4555929,25.3890772252795
Amarante,osm,25613461,"Amarante, Amarante, Porto, PT-13, Portugal",Amarante,Portugal,0.5649396727309868,place,city,41.2699316,-8.0804563,121.54656009670013
Amares,osm,4168911,"Amares, Braga, Portugal",Amares,Portugal,0.5376828705495178,boundary,administrative,41.6309663,-8.3510599,158.21392833629238
Ameal,osm,3885081825,"Ameal, Coimbra, Coimbra, Portugal",Coimbra,Portugal,0.385,place,village,40.1894485,-8.5460811,10.41712597542483
Amial,osm,8312012193,"Amial, Oliveira do Douro, Cinfães, Viseu, Portugal",Oliveira do Douro,Portugal,0.36,place,hamlet,41.0674624,-8.0626342,100.32946854839479
Amieira,osm,1772621310,"Amieira, Oleiros e Amieira, Oleiros, Castelo Branco, Portugal",Oleiros e Amieira,Portugal,0.385,place,village,39.9808285,-7.9119449,50.54414252440976
Amoreira,osm,6365710,"Amoreira, Parada e Cabreira, Almeida, Guarda, Portugal",Almeida,Portugal,0.45999999999999996,boundary,administrative,40.560009699999995,-7.02954033151052,124.87383436923714
Anadia,osm,5325844,"Anadia, Aveiro, Portugal",Anadia,Portugal,0.4807902007541597,boundary,administrative,40.4426833,-8.4359581,26.13731925930955
Ancas,osm,1674726813,"Ancas, Anadia, Aveiro, Portugal",Anadia,Portugal,0.385,place,village,40.4653401,-8.5043251,29.402617235733274
Ancede,osm,3512884395,"Ancede, Ancede e Ribadouro, Baião, Porto, PT-13, Portugal",Ancede e Ribadouro,Portugal,0.41000000000000003,place,town,41.1046709,-8.0614156,104.29853425336145
Anceriz,osm,1962280234,"Anseriz, Vila Cova de Alva e Anseriz, Arganil, Coimbra, Portugal",Vila Cova de Alva e Anseriz,Portugal,0.275,place,village,40.2777718,-7.9185215,43.88287991853751
Andorinha,osm,5032694832,"Andorinha, São Martinho de Árvore e Lamarosa, Coimbra, Coimbra, Portugal",Coimbra,Portugal,0.36,place,hamlet,40.2780472,-8.5703748,14.574389208088908
Angeja,osm,5392371,"Angeja, Albergaria-a-Velha, Aveiro, Portugal",Angeja,Portugal,0.4175723342298069,boundary,administrative,40.6786703,-8.5563816,53.48515790440158
Angola,osm,5418102,"Angola, Regional Centro, Betim, Região Geográfica Imediata de Belo Horizonte, Região Metropolitana de Belo Horizonte, Região Geográfica Intermediária de Belo Horizonte, Minas Gerais, Região Sudeste, Brasil",Betim,Brasil,0.36,boundary,administrative,-19.9601244,-44.2020531,7624.11045860296
Angra,osm,7448382,"Angra do Heroísmo, Açores, Portugal",Angra do Heroísmo,Portugal,0.6061937186047013,boundary,administrative,38.6593167,-27.2195578,1624.0673308235075
Angra do Heroismo,osm,7448382,"Angra do Heroísmo, Açores, Portugal",Angra do Heroísmo,Portugal,0.7061937186047014,boundary,administrative,38.6593167,-27.2195578,1624.0673308235075
Angra do Heroísmo,osm,7448382,"Angra do Heroísmo, Açores, Portugal",Angra do Heroísmo,Portugal,0.8061937186047013,boundary,administrative,38.6593167,-27.2195578,1624.0673308235075
"Angra do Heroísmo, Açores",osm,7448382,"Angra do Heroísmo, Açores, Portugal",Angra do Heroísmo,Portugal,0.9161937186047013,boundary,administrative,38.6593167,-27.2195578,1624.0673308235075
Anobra,osm,4081478,"Anobra, Condeixa-a-Nova, Coimbra, Portugal",Condeixa-a-Nova,Portugal,0.3432286868188654,boundary,administrative,40.149042,-8.5274185,10.799581941774468
Anseriz,osm,1962280234,"Anseriz, Vila Cova de Alva e Anseriz, Arganil, Coimbra, Portugal",Vila Cova de Alva e Anseriz,Portugal,0.385,place,village,40.2777718,-7.9185215,43.88287991853751
Ansiães,osm,5830050,"Ansiāes, Amarante, Porto, PT-13, Portugal",Amarante,Portugal,0.35,boundary,administrative,41.2513575,-7.9570653,122.50892437883881
Ansião,osm,5399198,"Ansião, Leiria, Portugal",Ansião,Portugal,0.5259422436998735,boundary,administrative,39.9113771,-8.4359857,32.88260655302599
Anta,osm,4037024204,"Anta, Espinho, Aveiro, Portugal",Anta,Portugal,0.37005838404068847,place,town,41.007855,-8.6187792,90.36999721307524
Antanhol,osm,2870088859,"Antanhol, Coimbra, Coimbra, Portugal",Coimbra,Portugal,0.385,place,village,40.1680048,-8.4634886,5.4172748626782905
Antas,osm,1962018331,"Antas, Vila Nova de Famalicão, Braga, Portugal",Vila Nova de Famalicão,Portugal,0.436855406087553,place,village,41.4041901,-8.5087953,133.08476081675227
Antas de Penedono,osm,1196204542,"Antas, Penedono, Viseu, Portugal",Penedono,Portugal,0.49500000000000005,place,village,40.9431397,-7.3879955,119.99599580492632
Antuzede,osm,3717402328,"Antuzede, Coimbra, Coimbra, Portugal",Coimbra,Portugal,0.385,place,village,40.2532801,-8.4765652,6.666769837209467
Ançã,osm,6549241,"Ançã, Cantanhede, Coimbra, Portugal",Ançã,Portugal,0.4118656186130232,boundary,administrative,40.2723549,-8.5191581,10.715498709913314
Arada,osm,2832748802,"Arada, Ovar, Aveiro, Portugal",Ovar,Portugal,0.38007481560908396,place,village,40.9152673,-8.5995458,79.96521335748905
Arazede,osm,6553452,"Arazede, Coimbra, Portugal",Arazede,Portugal,0.3968347429646153,boundary,administrative,40.2817583,-8.6520337,20.92901991288479
Arcos,osm,3789759875,"São Pedro d'Arcos, São Pedro d'Arcos, Ponte de Lima, Viana do Castelo, Portugal",São Pedro d'Arcos,Portugal,0.4335327307304576,place,village,41.7634894,-8.6557934,173.8853371875986
Arcos de Valdevez,osm,25278424,"Arcos de Valdevez, Arcos de Valdevez, Viana do Castelo, Portugal",Arcos de Valdevez,Portugal,0.7400343972100754,place,town,41.8471981,-8.417882,182.10570850769543
"Arcos, Anadia",osm,2502990573,"Arcos, Anadia, Aveiro, Portugal",Anadia,Portugal,0.5013117306116222,place,village,40.4482059,-8.4419809,26.771327265261792
"Arcos, Aveiro",osm,2502990573,"Arcos, Anadia, Aveiro, Portugal",Anadia,Portugal,0.5013117306116222,place,village,40.4482059,-8.4419809,26.771327265261792
Arcozelo,osm,4055523,"Arcozelo, Barcelos, Braga, Portugal",Barcelos,Portugal,0.49326724611461925,boundary,administrative,41.5423601,-8.6127013,149.07974264571035
Arcozelos,osm,6364359,"Arcozelos, Moimenta da Beira, Viseu, Portugal",Arcozelos,Portugal,0.40350420583069024,boundary,administrative,40.964923,-7.588698641701325,110.0010192230933
Aregos,osm,4321086862,"São Romão de Aregos, Anreade e São Romão de Arego, Resende, Viseu, Portugal",Anreade e São Romão de Arego,Portugal,0.375,place,village,41.0877551,-7.9812636,104.74563342345697
Arganil,osm,5395069,"Arganil, Coimbra, Portugal",Arganil,Portugal,0.5348725815835338,boundary,administrative,40.2202451,-7.980700223101081,37.933959732157376
Argozelo,osm,5726617,"Argozelo, Bragança, Portugal",Argozelo,Portugal,0.41412346813982415,boundary,administrative,41.6424891,-6.6002798,221.45426567648215
Armamar,osm,5328699,"Armamar, Viseu, Portugal",Armamar,Portugal,0.5358646738196668,boundary,administrative,41.1077323,-7.691601,117.69664306683238
Arneiros,osm,4918727489,"Arneiros, Ventosa, Torres Vedras, Lisboa, Portugal",Torres Vedras,Portugal,0.36,place,hamlet,39.058814,-9.3248146,149.05207340407873
Arnelas,osm,4422559170,"Arnelas, Sandim, Olival, Lever e Crestuma, Vila Nova de Gaia, Olival, Porto, PT-13, Portugal",Vila Nova de Gaia,Portugal,0.36,place,hamlet,41.0827135,-8.5235322,97.54797141336196
Arnoia,osm,4175608,"Arnoia, Celorico de Basto, Braga, Portugal",Arnoia,Portugal,0.4136784669331538,boundary,administrative,41.3666676,-8.010398190784684,133.42736111025903
Arouca,osm,3920278,"Arouca, Aveiro, Portugal",Arouca,Portugal,0.5574401015980972,boundary,administrative,40.930343,-8.273058398625317,81.31519888651658
Arrancada,osm,5349208183,"Arrancada, Febres, Cantanhede, Coimbra, Portugal",Febres,Portugal,0.36,place,hamlet,40.3981747,-8.6208697,26.890506922418382
Arrifana,osm,6022189,"Arrifana, Santa Maria da Feira, Aveiro, Portugal",Santa Maria da Feira,Portugal,0.4505469222584372,boundary,administrative,40.9116856,-8.4952939,78.42509865239084
Arrifana de Poiares,osm,6553858,"Arrifana, Vila Nova de Poiares, Coimbra, Portugal",Vila Nova de Poiares,Portugal,0.5602548452552094,boundary,administrative,40.2282359,-8.2761381,12.96447335819284
Arrifana de Santa Maria,osm,6022189,"Arrifana, Santa Maria da Feira, Aveiro, Portugal",Santa Maria da Feira,Portugal,0.6505469222584372,boundary,administrative,40.9116856,-8.4952939,78.42509865239084
Arronches,osm,5397420,"Arronches, Portalegre, Portugal",Arronches,Portugal,0.530199256633795,boundary,administrative,39.1070925,-7.252990258054288,158.29609967403553
Arruda,osm,6362719133,"Arruda, Salvada e Quintos, Beja, Beja, Portugal",Beja,Portugal,0.30999999999999994,place,farm,37.9786041,-7.7553902,254.1453846867963
Arzila,osm,2731329388,"Arzila, Coimbra, Coimbra, Portugal",Coimbra,Portugal,0.385,place,village,40.1835919,-8.5531514,11.14529837164976
Assafarge,osm,1396434925,"Assafarge, Coimbra, Coimbra, Portugal",Coimbra,Portugal,0.385,place,village,40.1588662,-8.431578,5.412409815774921
Asseiceira,osm,6483053,"Asseiceira, Tomar, Santarém, Portugal",Tomar,Portugal,0.45999999999999996,boundary,administrative,39.5301562,-8.391775,75.25525254248966
Assequins,osm,1006497875,"Assequins, Catraia de Assequins, Águeda e Borralha, Águeda, Aveiro, Portugal",Águeda,Portugal,0.36,place,neighbourhood,40.5730796,-8.432983,40.60772754774897
Assumar,osm,6440306,"Assumar, Monforte, Portalegre, Portugal",Monforte,Portugal,0.45999999999999996,boundary,administrative,39.1407521,-7.3928634,147.92701075817448
Atei,osm,4193247,"Atei, Mondim de Basto, Vila Real, Portugal",Mondim de Basto,Portugal,0.3558506578483178,boundary,administrative,41.4579941,-7.9262087,145.1334624584585
Atouguia,osm,6461801,"Atouguia, Ourém, Santarém, Portugal",Ourém,Portugal,0.45999999999999996,boundary,administrative,39.6487049,-8.6317502,64.48112315300641
Atouguia da Baleia,osm,6548050,"Atouguia da Baleia, Peniche, Leiria, Portugal",Peniche,Portugal,0.65,boundary,administrative,39.32497275,-9.322659669303757,124.50757324061397
Avanca,osm,6021238,"Avanca, Estarreja, Aveiro, Portugal",Estarreja,Portugal,0.4099978272098044,boundary,administrative,40.8062105,-8.5729444,67.64844791853697
Avelar,osm,6545000,"Avelar, Leiria, Portugal",Avelar,Portugal,0.40136025403149633,boundary,administrative,39.9236793,-8.3576363,32.040951906767205
Aveloso,osm,6410297,"Aveloso, Mêda, Guarda, Portugal",Mêda,Portugal,0.45999999999999996,boundary,administrative,40.9314858,-7.3168329,123.63739561132401
Avelãs,osm,5803670,"Castro de Avelãs, Bragança, Bragança, Portugal",Bragança,Portugal,0.45759847691766886,boundary,administrative,41.7985933,-6.8054069,223.18140646347538
Avelãs da Ribeira,osm,2403587,"Avelãs da Ribeira, Guarda, Guarda, Portugal",Guarda,Portugal,0.65,boundary,administrative,40.6635145,-7.2236937,113.89322589124586
Avelãs de Caminho,osm,6018443,"Avelãs de Caminho, Anadia, Aveiro, Portugal",Anadia,Portugal,0.65,boundary,administrative,40.4782058,-8.4523964,30.151672457818393
Avelãs de Cima,osm,6018444,"Avelãs de Cima, Anadia, Aveiro, Portugal",Anadia,Portugal,0.65,boundary,administrative,40.4896558,-8.4006553,31.41352130709984
Avintes,osm,5991740,"Avintes, Vila Nova de Gaia, Porto, PT-13, Portugal",Vila Nova de Gaia,Portugal,0.44829640206918464,boundary,administrative,41.1054014,-8.5507083,100.27428072425275
Avis,osm,5397421,"Avis, Portalegre, Portugal",Avis,Portugal,0.5312688261980792,boundary,administrative,39.07950305,-7.909561648393968,132.84405248714327
Avô,osm,6553523,"Avô, Oliveira do Hospital, Coimbra, Portugal",Avô,Portugal,0.4118656186130232,boundary,administrative,40.2931935,-7.9055642,45.29220050293251
Azambuja,osm,5400757,"Azambuja, Lisboa, Portugal",Azambuja,Portugal,0.5404848257450378,boundary,administrative,39.0689884,-8.8684921,131.9812149906288
Azeitão,osm,6445199,"Azeitão, Setúbal, Setúbal, Portugal",Setúbal,Portugal,0.45999999999999996,boundary,administrative,38.5172773,-9.008736345352716,194.24700904195038
Azevedo,osm,3855623859,"Azevedo, Caminha, Viana do Castelo, Portugal",Caminha,Portugal,0.385,place,village,41.8422112,-8.817162,184.50642961026543
Azinhaga,osm,6458545,"Azinhaga, Golegã, Santarém, Portugal",Golegã,Portugal,0.390014158487789,boundary,administrative,39.3503597,-8.5281677,95.56158449779963
Azinhoso,osm,5718020,"Azinhoso, Mogadouro, Bragança, Portugal",Mogadouro,Portugal,0.42971103368473373,boundary,administrative,41.3843896,-6.6851036,196.6365080203518
Azurara,osm,5989546,"Azurara, Vila do Conde, Porto, PT-13, Portugal",Vila do Conde,Portugal,0.45999999999999996,boundary,administrative,41.3455324,-8.7344345,129.04057646049756
"Bahia, Brasil",osm,416757809,"Bahia, Alenquer, Alenquer, Região Geográfica Imediata de Santarém, Região Geográfica Intermediária de Santarém, Pará, Região Norte, Brasil",Alenquer,Brasil,0.47000000000000003,place,hamlet,-0.753625,-55.063514,6546.863854604215
Baião,osm,3966517,"Baião, Porto, PT-13, Portugal",Baião,Portugal,0.5340545795893716,boundary,administrative,41.16930605,-7.977295769675545,113.34906008611749
Baleizão,osm,6431937,"Baleizão, Beja, Beja, Portugal",Beja,Portugal,0.45999999999999996,boundary,administrative,38.0246449,-7.7181044,249.9383216732442
Baltar,osm,5928404,"Baltar, Paredes, Porto, PT-13, Portugal",Baltar,Portugal,0.4365480119372578,boundary,administrative,41.1927312,-8.388552,109.46250226783101
Banhos,osm,1937688997,"Banhos, Vilarinho do Bairro, Anadia, Aveiro, Portugal",Anadia,Portugal,0.36,place,hamlet,40.4426709,-8.5475938,28.091924857821997
Barbacena,osm,371165573,"Barbacena, Elvas, Portalegre, Portugal",Elvas,Portugal,0.385,place,village,38.9600963,-7.2962478,169.10753921818264
Barbeita,osm,4640192,"Barbeita, Monção, Viana do Castelo, Portugal",Barbeita,Portugal,0.45999999999999996,boundary,administrative,42.06029625,-8.399797464447687,205.78550854705307
Barca,osm,3976601019,"Barca, Castêlo da Maia, Castêlo da Maia, Maia, Porto, PT-13, Portugal",Castêlo da Maia,Portugal,0.3815966805698038,place,suburb,41.2478094,-8.6109778,116.5855504833674
Barcelinhos,osm,4055577,"Barcelinhos, Barcelos, Braga, Portugal",Barcelos,Portugal,0.4941207252242894,boundary,administrative,41.5244568,-8.6215634,147.1846181208467
Barcelos,osm,3737586,"Barcelos, Braga, Portugal",Barcelos,Portugal,0.6095309382063085,boundary,administrative,41.5314496,-8.6192306,147.93452769811475
Barcouço,osm,6021542,"Barcouço, Mealhada, Aveiro, Portugal",Mealhada,Portugal,0.3785144183561604,boundary,administrative,40.3042232,-8.4730435,11.469576444320873
Barqueiros,osm,4056244,"Barqueiros, Barcelos, Braga, Portugal",Barcelos,Portugal,0.49363447103046243,boundary,administrative,41.47397805,-8.730793602907363,142.9814207608321
Barra,osm,1682340775,"Barra, Alqueidão, Figueira da Foz, Coimbra, Portugal",Figueira da Foz,Portugal,0.36,place,hamlet,40.0945344,-8.7786712,32.55879346532021
Barreira,osm,6410298,"Barreira, Mêda, Guarda, Portugal",Mêda,Portugal,0.39258254675527704,boundary,administrative,40.9108999,-7.186033,130.88311177615563
Barreiro,osm,5401735,"Barreiro, Setúbal, Portugal",Barreiro,Portugal,0.5776553812680484,boundary,administrative,38.6340657,-9.047856727251068,182.7014869063836
Barreiros,osm,5923280,"Cidade da Maia, Maia, Porto, PT-13, Portugal",Cidade da Maia,Portugal,0.46523561679375186,boundary,administrative,41.232208,-8.6273183,115.06495439413538
Barril,osm,2922647788,"Barril, Águeda e Borralha, Águeda, Aveiro, Portugal",Águeda,Portugal,0.36,place,neighbourhood,40.5725102,-8.4490487,40.58736627387253
Barroca,osm,5385270,"Barroca, Fundão, Castelo Branco, Portugal",Fundão,Portugal,0.42543423863277285,boundary,administrative,40.1086356,-7.7172569,61.370875551568474
"Barroca, Fundão",osm,5385270,"Barroca, Fundão, Castelo Branco, Portugal",Fundão,Portugal,0.5354342386327728,boundary,administrative,40.1086356,-7.7172569,61.370875551568474
Barrosa,osm,6458205,"Barrosa, Benavente, Santarém, Portugal",Benavente,Portugal,0.45999999999999996,boundary,administrative,38.9528384,-8.7533149,142.1020119320226
Barrô,osm,1223716522,"Barrô, Águeda, Aveiro, Portugal",Águeda,Portugal,0.42431700442598586,place,village,40.5369763,-8.4706548,36.790261715268635
Basto,osm,4175395,"Basto, Cabeceiras de Basto, Braga, Portugal",Cabeceiras de Basto,Portugal,0.39444095084610664,boundary,administrative,41.4881971,-7.9822378,147.0712954663566
Bastos,osm,6434607748,"Bastos, Garvão e Santa Luzia, Ourique, Beja, Portugal",Ourique,Portugal,0.30999999999999994,place,isolated_dwelling,37.7242125,-8.4179385,275.6740577825616
Batalha,osm,5399199,"Batalha, Leiria, Portugal",Batalha,Portugal,0.5377425629506706,boundary,administrative,39.6579329,-8.8244098,69.87217062820521
"Bahia, Brasil",osm,416757809,"Bahia, Alenquer, Alenquer, Região Geográfica Imediata de Santarém, Região Geográfica Intermediária de Santarém, Pará, Região Norte, Brasil",Alenquer,Brasil,0.47000000000000003,place,hamlet,-0.753625,-55.063514,6546.863854604215
"Bahia, Brasil",osm,416757809,"Bahia, Alenquer, Alenquer, Região Geográfica Imediata de Santarém, Região Geográfica Intermediária de Santarém, Pará, Região Norte, Brasil",Alenquer,Brasil,0.47000000000000003,place,hamlet,-0.753625,-55.063514,6546.863854604215
Beco,osm,6458522,"Beco, Ferreira do Zêzere, Santarém, Portugal",Ferreira do Zêzere,Portugal,0.45999999999999996,boundary,administrative,39.7809069,-8.3092273,48.396549699878896
Beduído,osm,1114722638,"Beduído, Estarreja, Aveiro, Portugal",Estarreja,Portugal,0.36234427922743184,place,village,40.7796841,-8.5525299,64.44525687234024
Belas,osm,1366277543,"Belas, Queluz e Belas, Sintra, Lisboa, Portugal",Queluz e Belas,Portugal,0.41000000000000003,place,town,38.7759197,-9.2639449,174.51240053721335
Belazaima,osm,1083002640,"Belazaima do Chão, Águeda, Aveiro, Portugal",Águeda,Portugal,0.375,place,village,40.5329228,-8.3660695,36.500849663081844
Belide,osm,4006757917,"Belide, Condeixa-a-Nova, Coimbra, Portugal",Condeixa-a-Nova,Portugal,0.385,place,village,40.1364632,-8.5624751,14.04318611241091
Belmonte,osm,5380921,"Belmonte, Castelo Branco, Portugal",Belmonte,Portugal,0.5366591530329307,boundary,administrative,40.329612850000004,-7.332043174506963,94.03389452701654
Belver,osm,6440257,"Belver, Gavião, Portalegre, Portugal",Gavião,Portugal,0.45999999999999996,boundary,administrative,39.4946508,-7.958696,88.6704682581048
Belém,osm,206169708,"Belém, Belém, Lisboa, Lisboa, Portugal",Lisboa,Portugal,0.5407126722129326,place,suburb,38.6977695,-9.2094318,180.66136539607413
"Belém, Lisboa",osm,206169708,"Belém, Belém, Lisboa, Lisboa, Portugal",Lisboa,Portugal,0.6507126722129326,place,suburb,38.6977695,-9.2094318,180.66136539607413
Bemposta,osm,5718021,"Bemposta, Mogadouro, Bragança, Portugal",Mogadouro,Portugal,0.43371021353085704,boundary,administrative,41.3143431,-6.5012976,203.7616727703164
Benavente,osm,25615642,"Benavente, Benavente, Santarém, Portugal",Benavente,Portugal,0.5252885055796394,place,town,38.9826508,-8.8095788,139.9166322528697
Benfeita,osm,6549067,"Benfeita, Arganil, Coimbra, Portugal",Arganil,Portugal,0.4224087281721012,boundary,administrative,40.2301406,-7.9444488,41.06775821184312
Benfica,osm,6385130,"Benfica, Lisboa, Lisboa, Portugal",Lisboa,Portugal,0.5270875941869926,boundary,administrative,38.738026950000005,-9.195298604626885,176.0550953102098
"Benfica, Lisboa",osm,6385130,"Benfica, Lisboa, Lisboa, Portugal",Lisboa,Portugal,0.6370875941869927,boundary,administrative,38.738026950000005,-9.195298604626885,176.0550953102098
Bera,osm,253485916,"Torre de Bera, Almalaguês, Coimbra, Coimbra, Portugal",Coimbra,Portugal,0.35,place,hamlet,40.1466576,-8.4027722,7.031305705147399
Beringel,osm,6431938,"Beringel, Beja, Beja, Portugal",Beja,Portugal,0.41412346813982415,boundary,administrative,38.0565476,-7.9835201,241.83039766304051
Bertiandos,osm,5713275,"Bertiandos, Ponte de Lima, Viana do Castelo, Portugal",Bertiandos,Portugal,0.4470096664112032,boundary,administrative,41.75778615,-8.631377926900777,173.03866744916468
Besteiros,osm,3979080666,"Besteiros, Vila Cova de Carros, Paredes, Paredes, Porto, PT-13, Portugal",Paredes,Portugal,0.4050646030836139,place,suburb,41.2209256,-8.3482426,112.7395624207003
Bitarães,osm,3979080667,"Bitarães, Paredes, Paredes, Porto, PT-13, Portugal",Paredes,Portugal,0.4060833436228193,place,suburb,41.2256945,-8.3147825,113.46736734809562
Boa Aldeia,osm,6443631,"Boa Aldeia, Farminhão e Torredeita, Viseu, Viseu, Portugal",Viseu,Portugal,0.46771915055604885,boundary,administrative,40.6305974,-8.037473035688691,57.40562022631785
Bobadela,osm,3186575641,"Bobadela, Chaves, Vila Real, Portugal",Chaves,Portugal,0.41093879814957734,place,village,41.7614957,-7.3168634,196.20442360967743
Bombarral,osm,5399254,"Bombarral, Leiria, Portugal",Bombarral,Portugal,0.5261586244933626,boundary,administrative,39.274831500000005,-9.150483879781214,120.73788171031156
Borba,osm,5402658,"Borba, Évora, Portugal",Borba,Portugal,0.5299289386593518,boundary,administrative,38.8199465,-7.43649992691133,175.9819569450498
Bordalo,osm,8306585285,"Pinheiro do Bordalo, Graça, Pedrógão Grande, Leiria, Portugal",Pedrógão Grande,Portugal,0.35,place,hamlet,39.9119685,-8.2262719,36.967828724859665
Borralha,osm,999534952,"Borralha, Águeda, Aveiro, Portugal",Águeda,Portugal,0.42083839101118525,place,village,40.5587014,-8.4379327,39.01991926477365
Botão,osm,4345154698,"Botão, Coimbra, Coimbra, Portugal",Coimbra,Portugal,0.385,place,village,40.3066564,-8.4029644,11.191903271883394
Braga,osm,4115866,"Braga, Braga, Portugal",Braga,Portugal,0.6710452279408594,boundary,administrative,41.5510583,-8.4280045,149.21303229239783
Bragança,osm,5245345,"Bragança, Bragança, Portugal",Bragança,Portugal,0.5295212256000424,boundary,administrative,41.8071182,-6.7589839,226.32468011001959
Branca,osm,6018071,"Branca, Albergaria-a-Velha, Aveiro, Portugal",Branca,Portugal,0.45999999999999996,boundary,administrative,40.7540788,-8.4862112,60.917185136282086
Brasil,osm,4732202818,"Brasil, Patos de Minas, Região Geográfica Imediata de Patos de Minas, Região Geográfica Intermediária de Patos de Minas, Minas Gerais, Região Sudeste, Brasil",Patos de Minas,Brasil,0.385,place,suburb,-18.5974894,-46.5233256,7613.733251972505
Britelo,osm,25264996,"Celorico de Basto, Britelo, Gémeos e Ourilhe, Celorico de Basto, Braga, Portugal","Britelo, Gémeos e Ourilhe",Portugal,0.5390413780516311,place,town,41.3879363,-8.0002089,135.93110907752387
Buarcos,osm,2363891338,"Buarcos, Buarcos e São Julião, Figueira da Foz, Coimbra, Portugal",Figueira da Foz,Portugal,0.385,place,suburb,40.1649599,-8.8751034,38.5355105033645
Bunheiro,osm,6021691,"Bunheiro, Murtosa, Aveiro, Portugal",Murtosa,Portugal,0.45999999999999996,boundary,administrative,40.7741043,-8.6450912,65.61067635453732
Bustelo,osm,4193763,"Bustelo, Chaves, Vila Real, Portugal",Chaves,Portugal,0.4398478578672752,boundary,administrative,41.7861522,-7.4910633,192.15983149023435
Cabanas,osm,5353507753,"Cabanas, Quiaios, Figueira da Foz, Coimbra, Portugal",Figueira da Foz,Portugal,0.36,place,hamlet,40.1971119,-8.8348111,34.82524522256841
Cabaços,osm,6364361,"Cabaços, Moimenta da Beira, Viseu, Portugal",Cabaços,Portugal,0.45999999999999996,boundary,administrative,41.01432895,-7.567291181209933,115.36753177706339
Cabeceiras de Basto,osm,4021970,"Cabeceiras de Basto, Braga, Portugal",Cabeceiras de Basto,Portugal,0.7265984015254268,boundary,administrative,41.5136392,-7.9878132,149.68721149050643
Cabeça Santa,osm,5928126,"Paredes, Penafiel, Porto, PT-13, Portugal",Penafiel,Portugal,0.5186693345312294,boundary,administrative,41.1341641,-8.2831721,103.61856950178101
Cabeça de Vide,osm,6334607,"Vide e Cabeça, Seia, Guarda, Portugal",Seia,Portugal,0.5618449554900855,boundary,administrative,40.28323615,-7.77724548726369,55.83925170350215
Cabeço de Vide,osm,6440248,"Cabeço de Vide, Fronteira, Portalegre, Portugal",Fronteira,Portugal,0.5563219431370923,boundary,administrative,39.1341,-7.5885536,139.15448614594072
Cabeçudo,osm,5541456,"Cabeçudo, Sertã, Castelo Branco, Portugal",Sertã,Portugal,0.38453211150644173,boundary,administrative,39.8303567,-8.1432476,48.32767854262272
"Cachoeira, Baía, Brasil",osm,362439,"Cachoeira, Região Geográfica Imediata de Cruz das Almas, Região Geográfica Intermediária de Santo Antônio de Jesus, Bahia, Região Nordeste, Brasil",Cachoeira,Brasil,0.7051042763399197,boundary,administrative,-12.5998256,-38.9665918,6643.002626239479
Cacia,osm,6021063,"Cacia, Aveiro, Aveiro, Portugal",Aveiro,Portugal,0.41963381066044214,boundary,administrative,40.6837054,-8.5974274,54.85105880813599
Cacilhas,osm,1666004815,"Cacilhas, Almada, Cova da Piedade, Pragal e Cacilhas, Almada, Setúbal, Portugal",Almada,Portugal,0.4389652785939945,place,suburb,38.687265,-9.1482015,179.85690655756122
Cadaval,osm,2898704,"Cadaval, Lisboa, Portugal",Cadaval,Portugal,0.4477849269397959,boundary,administrative,39.2395742,-9.062203105766496,120.50968163495321
Cadima,osm,6549242,"Cadima, Cantanhede, Coimbra, Portugal",Cantanhede,Portugal,0.3815966805698038,boundary,administrative,40.3256142,-8.6425148,22.614452720242767
Caldas,osm,5210883916,"Caldas, Sequeira, Braga, Braga, Portugal",Braga,Portugal,0.36,place,hamlet,41.5348283,-8.4711457,147.45946572984778
Caldas da Rainha,osm,3992954,"Caldas da Rainha, Leiria, Portugal",Caldas da Rainha,Portugal,0.7682457641983975,boundary,administrative,39.4072118,-9.1346004,107.59084105978101
Calvaria,osm,3260952007,"Calvaria, Vermoil, Pombal, Leiria, Portugal",Pombal,Portugal,0.36,place,hamlet,39.8289166,-8.6598627,46.52836037332581
Calvão,osm,3186575642,"Calvão, Chaves, Vila Real, Portugal",Chaves,Portugal,0.4150039459623188,place,village,41.7895669,-7.5444238,190.71494213424552
Calçada,osm,1226766367,"Calçada, Vila Chã, Codal e Vila Cova de Perrinho, Vale de Cambra, Aveiro, Portugal",Vale de Cambra,Portugal,0.36,place,hamlet,40.894437,-8.389707,76.3516669841245
Camarate,osm,4361088134,"Camarate, Loures, Lisboa, Portugal",Loures,Portugal,0.41000000000000003,place,town,38.8031305,-9.1309898,167.28514436308936
Cambra,osm,1454312831,"Cambra, Préstimo e Macieira de Alcoba, Águeda, Aveiro, Portugal",Águeda,Portugal,0.36,place,hamlet,40.6106741,-8.36537,45.072922128644244
Cambres,osm,6354511,"Cambres, Lamego, Viseu, Portugal",Cambres,Portugal,0.4060833436228193,boundary,administrative,41.141334,-7.7971182,116.54367172291074
Caminha,osm,3911964,"Caminha, Viana do Castelo, Portugal",Caminha,Portugal,0.545733305798353,boundary,administrative,41.849112500000004,-8.772489708192628,184.63048122318813
Campanhã,osm,3383117,"Campanhã, Valbom, Porto, PT-13, Portugal",Valbom,Portugal,0.45999999999999996,boundary,administrative,41.1543999,-8.5750348,105.91175993678144
"Campanhã, Porto",osm,3383117,"Campanhã, Valbom, Porto, PT-13, Portugal",Valbom,Portugal,0.5700000000000001,boundary,administrative,41.1543999,-8.5750348,105.91175993678144
Campelo,osm,6546629,"Campelo, Figueiró dos Vinhos, Leiria, Portugal",Figueiró dos Vinhos,Portugal,0.36821847429339527,boundary,administrative,39.9993104,-8.266193,26.826352726046316
Campo Maior,osm,5397422,"Campo Maior, Portalegre, Portugal",Campo Maior,Portugal,0.6298538696592648,boundary,administrative,39.0125063,-7.0692822,176.56198051599966
Campos,osm,3171488208,"Campos, Póvoa de Lanhoso, Braga, Portugal",Póvoa de Lanhoso,Portugal,0.43174305507770205,place,village,41.5407992,-8.283974,148.55666432270533
Canas de Sabugosa,osm,6451758,"Canas de Santa Maria, Tondela, Viseu, Portugal",Tondela,Portugal,0.5179649565859212,boundary,administrative,40.5528608,-8.0355727,50.70085704371092
Canas de Senhorim,osm,6366067,"Canas de Senhorim, Viseu, Portugal",Canas de Senhorim,Portugal,0.5999978272098043,boundary,administrative,40.5033219,-7.9011873,55.38236008327575
Canaveses,osm,4197848,"Canaveses, Valpaços, Vila Real, Portugal",Valpaços,Portugal,0.429018527529768,boundary,administrative,41.5042274,-7.3642312,169.56769532030057
Canavezes,osm,3920309,"Marco de Canaveses, Porto, PT-13, Portugal",Marco de Canaveses,Portugal,0.4365661887350441,boundary,administrative,41.1616546,-8.12779201865893,108.9226219226434
Candedo,osm,5739329,"Candedo, Vinhais, Bragança, Portugal",Vinhais,Portugal,0.45999999999999996,boundary,administrative,41.8402172,-7.1197885,212.0055123359334
Candosa,osm,6553833,"Candosa, Tábua, Coimbra, Portugal",Tábua,Portugal,0.45999999999999996,boundary,administrative,40.3440504,-7.9658725,41.971627642676985
Canedo,osm,6022221,"Canedo, Vale e Vila Maior, Santa Maria da Feira, Aveiro, Portugal",Santa Maria da Feira,Portugal,0.45999999999999996,boundary,administrative,41.00623575,-8.448727804894842,88.72617222416056
Canelas,osm,5991741,"Perosinho, Vila Nova de Gaia, Porto, PT-13, Portugal",Vila Nova de Gaia,Portugal,0.43467073789699096,boundary,administrative,41.0805427,-8.6006594,98.07646550172643
"Canelas, Vila Real",osm,3191946108,"Canelas, Peso da Régua, Vila Real, Portugal",Peso da Régua,Portugal,0.5760971516994238,place,village,41.164371,-7.7290982,121.50314042939972
Caniçada,osm,3172353420,"Caniçada, Vieira do Minho, Braga, Portugal",Vieira do Minho,Portugal,0.34036154663644147,place,village,41.6592882,-8.1809182,162.54918657749496
Cano,osm,6441292,"Cano, Sousel, Portalegre, Portugal",Sousel,Portugal,0.45999999999999996,boundary,administrative,38.9640466,-7.7626565,149.34615850271913
Cantanhede,osm,5377896,"Cantanhede, Coimbra, Portugal",Cantanhede,Portugal,0.5385133485540313,boundary,administrative,40.3654887,-8.658317806596092,26.4258647195207
Caparica,osm,2165438361,"Monte de Caparica, Almada, Setúbal, Portugal",Monte de Caparica,Portugal,0.32887635671362175,place,town,38.6637429,-9.198197,183.82508186766847
Capinha,osm,5290582,"Capinha, Fundão, Castelo Branco, Portugal",Fundão,Portugal,0.4272524353626238,boundary,administrative,40.2008959,-7.3756137,89.43153211441796
Carapinheira,osm,6553453,"Carapinheira, Coimbra, Portugal",Carapinheira,Portugal,0.39066635927625193,boundary,administrative,40.2057995,-8.6483241,18.92834071317498
Carapito,osm,6406855,"Carapito, Aguiar da Beira, Guarda, Portugal",Aguiar da Beira,Portugal,0.45999999999999996,boundary,administrative,40.764534,-7.4648078,102.31523370147814
Carcavelos,osm,545306132,"Carcavelos, Carcavelos e Parede, Cascais, Lisboa, Portugal",Carcavelos e Parede,Portugal,0.385,place,village,38.6900906,-9.3346828,185.72958984385392
Cardigos,osm,6458553,"Cardigos, Mação, Santarém, Portugal",Mação,Portugal,0.45999999999999996,boundary,administrative,39.6947669,-8.0207277,66.62965926597346
Caria,osm,6364362,"Caria, Moimenta da Beira, Viseu, Portugal",Caria,Portugal,0.45999999999999996,boundary,administrative,40.919242749999995,-7.616927873696419,104.60713646421493
Carnicães,osm,4557690797,"Carnicães, Vilares e Carnicães, Trancoso, Guarda, Portugal",Vilares e Carnicães,Portugal,0.385,place,village,40.7329387,-7.3187825,110.55268878534282
Carnide,osm,6384154,"Carnide, Lisboa, Lisboa, Portugal",Lisboa,Portugal,0.5088108992764026,boundary,administrative,38.7664262,-9.187443588533895,172.87560915196855
Carquere,osm,6438268,"Cárquere, Resende, Viseu, Portugal",Resende,Portugal,0.28857098170449985,boundary,administrative,41.0861903,-7.9636451,105.1287949870314
Carragosela,osm,5265726642,"Carragosela, Espariz e Sinde, Tábua, Coimbra, Portugal",Tábua,Portugal,0.36,place,hamlet,40.3236665,-8.0252894,36.44769323753893
Carragozela,osm,1325069433,"Carragozela, Seia, Guarda, Portugal",Seia,Portugal,0.385,place,village,40.4110864,-7.7630964,60.72033413852563
Carrapichana,osm,6371559,"Carrapichana, Celorico da Beira, Guarda, Portugal",Celorico da Beira,Portugal,0.45999999999999996,boundary,administrative,40.5623043,-7.4858633,89.02554915346859
Carrazedo de Montenegro,osm,3188737662,"Carrazedo de Montenegro, Valpaços, Vila Real, Portugal",Valpaços,Portugal,0.5173380601845066,place,town,41.5637133,-7.4271072,172.54651801527098
Carregal,osm,6426655,"Carregal, Sernancelhe, Viseu, Portugal",Sernancelhe,Portugal,0.45999999999999996,boundary,administrative,40.9097381,-7.5786636,105.9820109566671
Carregosa,osm,6021984,"Carregosa, Oliveira de Azeméis, Aveiro, Portugal",Oliveira de Azeméis,Portugal,0.4118656186130232,boundary,administrative,40.8832957,-8.4150805,75.05818793162017
Cartaxo,osm,25615637,"Cartaxo, Cartaxo, Santarém, Portugal",Cartaxo,Portugal,0.5424504902786093,place,city,39.1619462,-8.7863222,120.12236459079479
Carvalhais,osm,5735856,"Carvalhais, Mirandela, Bragança, Portugal",Mirandela,Portugal,0.45999999999999996,boundary,administrative,41.5146603,-7.1641692,179.97476894651996
Carvalhal,osm,4056465,"Carvalhal, Barcelos, Braga, Portugal",Barcelos,Portugal,0.4930212082654317,boundary,administrative,41.5104,-8.6350483,145.76662936220194
Carvalhal Redondo,osm,7026298696,"Carvalhal Redondo, Fermedo, Arouca, Aveiro, Portugal",Fermedo,Portugal,0.45,place,hamlet,40.9716452,-8.3496822,85.10949784141691
Carvalhal de Tondela,osm,5347012361,"Carvalhal, Mouraz e Vila Nova da Rainha, Tondela, Viseu, Portugal",Tondela,Portugal,0.5700000000000001,place,hamlet,40.4817687,-8.0660141,43.16858216466973
"Carvalhal, Tondela",osm,5347012361,"Carvalhal, Mouraz e Vila Nova da Rainha, Tondela, Viseu, Portugal",Tondela,Portugal,0.47000000000000003,place,hamlet,40.4817687,-8.0660141,43.16858216466973
Carvalheira,osm,1854141423,"Carvalheira, Guarda, Guarda, Portugal",Guarda,Portugal,0.385,place,village,40.4599689,-7.2160143,106.57548678671655
Carvalho,osm,6553653,"Carvalho, Penacova, Coimbra, Portugal",Penacova,Portugal,0.390014158487789,boundary,administrative,40.329516,-8.3131187,16.613082622296602
Carvalho de Egas,osm,1465186446,"Carvalho de Egas, Vila Flor, Bragança, Portugal",Vila Flor,Portugal,0.5908124068742756,place,village,41.2799267,-7.1990325,157.87016398671918
"Carvalho, Coimbra",osm,6553653,"Carvalho, Penacova, Coimbra, Portugal",Penacova,Portugal,0.500014158487789,boundary,administrative,40.329516,-8.3131187,16.613082622296602
Carviçais,osm,3358241,"Carviçais, Torre de Moncorvo, Bragança, Portugal",Torre de Moncorvo,Portugal,0.45999999999999996,boundary,administrative,41.1813234,-6.8921364,168.8278771747856
Carvoeira,osm,6522361,"Carvoeira, Mafra, Lisboa, Portugal",Mafra,Portugal,0.45999999999999996,boundary,administrative,38.942756,-9.3965784,163.30572852231728
Carvoeiro,osm,1121314090,"Carvoeiro, Lagoa e Carvoeiro, Lagoa, Faro, PT-08, Portugal",Lagoa e Carvoeiro,Portugal,0.416301518086152,place,town,37.0970567,-8.4711093,345.3005910709721
Casainho,osm,2499971167,"Casainho, Sangalhos, Anadia, Aveiro, Portugal",Anadia,Portugal,0.36,place,hamlet,40.4844592,-8.4789392,31.089596377995754
Casais,osm,2386894958,"Casais, Tomar, Santarém, Portugal",Tomar,Portugal,0.385,place,village,39.6522695,-8.3827126,61.75138359750534
Casal,osm,8350805827,"Casal, Campelo, Figueiró dos Vinhos, Leiria, Portugal",Figueiró dos Vinhos,Portugal,0.36,place,hamlet,39.9639529,-8.2539688,30.75886098601815
Casal Comba,osm,6021543,"Casal Comba, Mealhada, Aveiro, Portugal",Mealhada,Portugal,0.55,boundary,administrative,40.3669524,-8.4675807,18.063657596494764
Casal Ermio,osm,2651242684,"Casal de Ermio, Foz de Arouce e Casal de Ermio, Lousã, Coimbra, Portugal",Foz de Arouce e Casal de Ermio,Portugal,0.4288763567136218,place,village,40.1536924,-8.2512014,16.038535208956095
Casal Vasco,osm,6409536,"Casal Vasco, Fornos de Algodres, Guarda, Portugal",Fornos de Algodres,Portugal,0.4844409508461066,boundary,administrative,40.6489937,-7.5475285,89.22553814717212
Casal de Álvaro,osm,8438867609,"Casal de Ordem, Frazumeira, Oleiros, Castelo Branco, Portugal",Oleiros,Portugal,0.56,place,hamlet,39.973517,-7.979527,46.09026983834621
Casal do Ermio,osm,2651242684,"Casal de Ermio, Foz de Arouce e Casal de Ermio, Lousã, Coimbra, Portugal",Foz de Arouce e Casal de Ermio,Portugal,0.4288763567136218,place,village,40.1536924,-8.2512014,16.038535208956095
Casalinho,osm,6466616550,"Casalinho, Vila Nova, Miranda do Corvo, Coimbra, Portugal",Miranda do Corvo,Portugal,0.36,place,hamlet,40.0458169,-8.3064467,20.63587047736768
Cascais,osm,5400889,"Cascais, Lisboa, Portugal",Cascais,Portugal,0.6188265147809425,boundary,administrative,38.72240025,-9.396909171649877,184.83274715283824
Casconha,osm,8521961472,"Casconha, Cernache, Coimbra, Coimbra, Portugal",Coimbra,Portugal,0.36,place,hamlet,40.1326352,-8.4723432,9.19458981461656
Cassurrães,osm,1514341389,"Santiago de Cassurrães, Mangualde, Viseu, Portugal",Mangualde,Portugal,0.35130841619905606,place,village,40.5788253,-7.7039594,73.88409956125076
Castainço,osm,6427536,"Castainço, Penedono, Viseu, Portugal",Penedono,Portugal,0.3672775033536223,boundary,administrative,40.9953396,-7.448037,120.44384722246558
Castanheira,osm,6372236,"Castanheira, Trancoso, Guarda, Portugal",Trancoso,Portugal,0.45999999999999996,boundary,administrative,40.8443776,-7.3649414,114.39459568291677
Castanheira de Pera,osm,5399200,"Castanheira de Pera, Leiria, Portugal",Castanheira de Pera,Portugal,0.7058364928800134,boundary,administrative,40.018094149999996,-8.204468901443503,28.260203973260346
Castanheiro,osm,1404638296,"Castanheiro, Carrazeda de Ansiães, Bragança, Portugal",Carrazeda de Ansiães,Portugal,0.385,place,village,41.2339658,-7.3850709,143.97626789393092
Castedo,osm,5717582,"Castedo, Torre de Moncorvo, Bragança, Portugal",Torre de Moncorvo,Portugal,0.413230229325644,boundary,administrative,41.2318928,-7.1706999,155.53312824141395
Casteição,osm,3310822290,"Casteição, Prova e Casteição, Mêda, Guarda, Portugal",Prova e Casteição,Portugal,0.385,place,village,40.8794801,-7.3272289,119.30216237624948
Castelejo,osm,5385057,"Castelejo, Fundão, Castelo Branco, Portugal",Fundão,Portugal,0.42689306175331987,boundary,administrative,40.1235999,-7.577619,72.86815732980567
Castelo Bom,osm,2400428,"Castelo Bom, Almeida, Guarda, Portugal",Almeida,Portugal,0.55,boundary,administrative,40.6214358,-6.901541,137.31161452245848
Castelo Melhor,osm,6393400,"Castelo Melhor, Vila Nova de Foz Coa, Guarda, Portugal",Vila Nova de Foz Coa,Portugal,0.49952189898097166,boundary,administrative,41.0260652,-7.0648061,146.73394731106688
Castelo Mendo,osm,2081050231,"Castelo Mendo, Almeida, Guarda, Portugal",Almeida,Portugal,0.44352463088163047,place,village,40.594514,-6.9485883,132.58014841322287
Castelo Novo,osm,5315988,"Castelo Novo, Fundão, Castelo Branco, Portugal",Fundão,Portugal,0.5370096664112032,boundary,administrative,40.0779933,-7.4953765,80.59539048515916
Castelo Viegas,osm,1393932068,"Castelo Viegas, Coimbra, Coimbra, Portugal",Coimbra,Portugal,0.47500000000000003,place,village,40.162643,-8.4065716,5.240336588769557
Castelões,osm,6451759,"Castelões, Tondela, Viseu, Portugal",Tondela,Portugal,0.45999999999999996,boundary,administrative,40.5357118,-8.1394572,43.83066726671903
Castendo,osm,5330117,"Penalva do Castelo, Viseu, Portugal",Penalva do Castelo,Portugal,0.4187666737235029,boundary,administrative,40.67436,-7.69997,80.51520942080401
Castro Daire,osm,5329283,"Castro Daire, Viseu, Portugal",Castro Daire,Portugal,0.6272633970823335,boundary,administrative,40.9014091,-7.9311761,87.72320633727288
Castro Marim,osm,5404219,"Castro Marim, Faro, PT-08, Portugal",Castro Marim,Portugal,0.6300265901815691,boundary,administrative,37.2179367,-7.4457102,342.6334178052607
Castro Verde,osm,5403268,"Castro Verde, Beja, Portugal",Castro Verde,Portugal,0.6293909011020311,boundary,administrative,37.697995,-8.082275,280.1711928812223
Castêdo,osm,5717582,"Castedo, Torre de Moncorvo, Bragança, Portugal",Torre de Moncorvo,Portugal,0.303230229325644,boundary,administrative,41.2318928,-7.1706999,155.53312824141395
Cativelos,osm,6312221,"Cativelos, Gouveia, Guarda, Portugal",Gouveia,Portugal,0.38664542937718926,boundary,administrative,40.5323153,-7.6899765,72.17473087576455
Cavaleiros,osm,1474174151,"Cavaleiros, Barcouço, Mealhada, Aveiro, Portugal",Mealhada,Portugal,0.36,place,hamlet,40.2988027,-8.4976518,11.837074963073942
Caíde de Rei,osm,5904419,"Caíde de Rei, Senhora da Aparecida, Porto, PT-13, Portugal",Senhora da Aparecida,Portugal,0.65,boundary,administrative,41.2665233,-8.2216457,118.8718515660705
Ceira,osm,6386148,"Ceira, Coimbra, Coimbra, Portugal",Coimbra,Portugal,0.45999999999999996,boundary,administrative,40.1719847,-8.3914739,4.91217862403132
Ceira dos Vales,osm,2651242683,"Ceira dos Vales, Lousã e Vilarinho, Lousã, Coimbra, Portugal",Lousã e Vilarinho,Portugal,0.55,place,hamlet,40.146221,-8.2510631,16.37671996973
Cela,osm,6544460,"Cela, Alcobaça, Leiria, Portugal",Alcobaça,Portugal,0.4145652793462674,boundary,administrative,39.5398754,-9.0355054,90.62281502457883
"Cela, Alcobaça",osm,6544460,"Cela, Alcobaça, Leiria, Portugal",Alcobaça,Portugal,0.5245652793462674,boundary,administrative,39.5398754,-9.0355054,90.62281502457883
Celas,osm,5739330,"Celas, Vinhais, Bragança, Portugal",Vinhais,Portugal,0.4377684953714004,boundary,administrative,41.7160715,-6.9201759,210.08574744252175
"Celas, Coimbra",osm,1276585924,"Celas, Santo António dos Olivais, Coimbra, Coimbra, Portugal",Coimbra,Portugal,0.49500000000000005,place,suburb,40.2134788,-8.4134349,1.2637751402592639
Celavisa,osm,6549068,"Celavisa, Arganil, Coimbra, Portugal",Arganil,Portugal,0.37526985874952823,boundary,administrative,40.190209,-8.0554876,31.605633482207086
Celeirós,osm,4203939,"Celeirós, Sabrosa, Vila Real, Portugal",Sabrosa,Portugal,0.3956494679857989,boundary,administrative,41.2428493,-7.5584439,136.3547760892018
Celorico,osm,3451377645,"Celorico, Joane, Vila Nova de Famalicão, Braga, Portugal",Joane,Portugal,0.36,place,neighbourhood,41.4463446,-8.4188096,137.58439876621838
Celorico da Beira,osm,5331732,"Celorico da Beira, Guarda, Portugal",Celorico da Beira,Portugal,0.6327017194975908,boundary,administrative,40.6358841,-7.3928446,99.75606166424127
Celorico de Basto,osm,25264996,"Celorico de Basto, Britelo, Gémeos e Ourilhe, Celorico de Basto, Braga, Portugal","Britelo, Gémeos e Ourilhe",Portugal,0.7290413780516312,place,town,41.3879363,-8.0002089,135.93110907752387
Cepelos,osm,6022349,"Cepelos, Vale de Cambra, Aveiro, Portugal",Vale de Cambra,Portugal,0.45999999999999996,boundary,administrative,40.843105,-8.344178,70.92894775070238
Cepões,osm,1684863844,"Cepões, Viseu, Viseu, Portugal",Viseu,Portugal,0.385,place,village,40.7496141,-7.8025574,80.12191325699504
Ceras,osm,9217008875,"Ceras, Casais e Alviobeira, Tomar, Santarém, Portugal",Tomar,Portugal,0.36,place,hamlet,39.6917502,-8.35845,57.54721057428006
Cercal,osm,1795335925,"Cercal, Ourém, Santarém, Portugal",Ourém,Portugal,0.385,place,village,39.707682,-8.659308,58.96035554221655
Cercosa,osm,6365966,"Cercosa, Mortágua, Viseu, Portugal",Mortágua,Portugal,0.3633630197666373,boundary,administrative,40.3393521,-8.267546,19.905817768851175
Cerdeira,osm,6364286,"Cerdeira, Sabugal, Guarda, Portugal",Sabugal,Portugal,0.43273448234397094,boundary,administrative,40.513652,-7.0480087,121.88872532317363
Cernache,osm,6386149,"Cernache, Coimbra, Coimbra, Portugal",Coimbra,Portugal,0.42083839101118525,boundary,administrative,40.1358462,-8.462225474996666,8.525517617434248
Cernache do Bonjardim,osm,2701124724,"Cernache do Bonjardim, Castelo Branco, Portugal",Cernache do Bonjardim,Portugal,0.5924415519306158,place,town,39.8165101,-8.1862538,47.98935853663819
Cerva,osm,3185054605,"Cerva, Vila Real, Portugal",Cerva,Portugal,0.41000000000000003,place,town,41.473806,-7.8470629,148.86683694533068
"Cerva, Vila Real",osm,3185054605,"Cerva, Vila Real, Portugal",Cerva,Portugal,0.6100000000000001,place,town,41.473806,-7.8470629,148.86683694533068
Cervães,osm,4161484,"Cervães, Vila Verde, Braga, Portugal",Vila Verde,Portugal,0.3919504140408089,boundary,administrative,41.5959943,-8.5230863,154.4205398318713
Cete,osm,5928406,"Cete, Paredes, Porto, PT-13, Portugal",Cete,Portugal,0.4188174755556058,boundary,administrative,41.1782871,-8.3649391,107.93607703155645
Chacim,osm,5728025,"Chacim, Macedo de Cavaleiros, Bragança, Portugal",Macedo de Cavaleiros,Portugal,0.45999999999999996,boundary,administrative,41.4689521,-6.8991029,190.28379858321983
Chamusca,osm,5400569,"Chamusca, Santarém, Portugal",Chamusca,Portugal,0.530936575262058,boundary,administrative,39.3560025,-8.4802892,94.64779438149091
Charneca,osm,3413492666,"Charneca, Redinha, Pombal, Leiria, Portugal",Pombal,Portugal,0.36,place,hamlet,39.9758291,-8.5871578,29.15729924526458
Chaves,osm,4022982,"Chaves, Vila Real, Portugal",Chaves,Portugal,0.58494931380879,boundary,administrative,41.7399453,-7.471477,188.19850978418393
Cheiras,osm,1891873850,"Cheiras, Pínzio, Pinhel, Guarda, Portugal",Pinhel,Portugal,0.36,place,hamlet,40.6246702,-7.0885834,122.60127994238022
Chão de Couce,osm,6545001,"Chão de Couce, Ansião, Leiria, Portugal",Ansião,Portugal,0.5652698587495282,boundary,administrative,39.8923985,-8.3696454,35.30786451553313
Chão do Bispo,osm,2583165854,"Chão do Bispo, Santo António dos Olivais, Coimbra, Coimbra, Portugal",Coimbra,Portugal,0.5750000000000001,place,suburb,40.2027372,-8.3906016,3.0585854300950515
Chãos,osm,1366743152,"Chãos, Guarda, Guarda, Portugal",Guarda,Portugal,0.385,place,village,40.5427332,-7.3209763,100.95978404040014
Chãs,osm,6393402,"Chãs, Vila Nova de Foz Coa, Guarda, Portugal",Chãs,Portugal,0.3893549821575414,boundary,administrative,40.99798625,-7.143989619887149,139.57083341967663
Cidadelhe,osm,439647468,"Cidadelhe, Vale do Côa, Pinhel, Guarda, Portugal",Vale do Côa,Portugal,0.385,place,village,40.9157434,-7.1161149,135.98723060440122
Cinfães,osm,3920286,"Cinfães, Viseu, Portugal",Cinfães,Portugal,0.5328391633589952,boundary,administrative,41.0326553,-8.108008158498851,95.50783513473834
Cioga do Campo,osm,3995663851,"Cioga do Campo, São João do Campo, Coimbra, Coimbra, Portugal",Coimbra,Portugal,0.55,place,hamlet,40.2398743,-8.5249269,9.158533974164
Cioga do Monte,osm,1581465329,"Cioga do Monte, Trouxemil e Torre de Vilela, Coimbra, Coimbra, Portugal",Coimbra,Portugal,0.55,place,hamlet,40.2661844,-8.4523261,6.898724134536375
Coelhoso,osm,5803671,"Coelhoso, Bragança, Bragança, Portugal",Bragança,Portugal,0.46275828284593035,boundary,administrative,41.6541677,-6.6665694,218.55765132712872
Cogula,osm,6372237,"Cogula, Trancoso, Guarda, Portugal",Trancoso,Portugal,0.4258021943488055,boundary,administrative,40.8139805,-7.2597601,119.60943445112177
Coimbra,osm,5379538,"Coimbra, Coimbra, Portugal",Coimbra,Portugal,0.6853459111399511,boundary,administrative,40.2111931,-8.4294632,0.5119581961595552
Coimbrão,osm,6546912,"Coimbrão, Leiria, Leiria, Portugal",Leiria,Portugal,0.45999999999999996,boundary,administrative,39.8974114,-8.88276,51.998814624779975
Coina,osm,257173617,"Coina, Palhais e Coina, Barreiro, Setúbal, Portugal",Palhais e Coina,Portugal,0.385,place,village,38.5935519,-9.04218,186.87095287569952
Coja,osm,1121986294,"Côja, Côja e Barril de Alva, Arganil, Coimbra, Portugal",Côja e Barril de Alva,Portugal,0.2806663592762519,place,village,40.2686059,-7.9872527,37.949233003051106
Colares,osm,1745996709,"Colares, Colares, Sintra, Lisboa, Portugal",Colares,Portugal,0.45389213702574516,place,town,38.7991807,-9.446217,179.28693429890976
Colmeosa,osm,5316738853,"Colmeosa, Santa Comba Dão e Couto de Mosteiro, Santa Comba Dão, Viseu, Portugal",Santa Comba Dão,Portugal,0.36,place,hamlet,40.4079901,-8.1502783,32.33264088310832
Condeixa,osm,5379539,"Condeixa-a-Nova, Coimbra, Portugal",Condeixa-a-Nova,Portugal,0.5212025191455594,boundary,administrative,40.1153481,-8.4998828,12.00573657377522
Condeixa-a-Nova,osm,5379539,"Condeixa-a-Nova, Coimbra, Portugal",Condeixa-a-Nova,Portugal,0.7212025191455594,boundary,administrative,40.1153481,-8.4998828,12.00573657377522
Condeixa-a-Velha,osm,1364959874,"Condeixa-a-Velha, Condeixa-a-Nova, Coimbra, Portugal",Condeixa-a-Nova,Portugal,0.5669134868042601,place,village,40.1015658,-8.4960001,13.18043558193249
Conraria,osm,719490043,"Conraria, Santa Clara e Castelo Viegas, Coimbra, Coimbra, Portugal",Coimbra,Portugal,0.36,place,hamlet,40.1761086,-8.3961458,4.3074063108065
Constantim,osm,3191001768,"Constantim, Vila Real, Vila Real, Portugal",Vila Real,Portugal,0.44157598227637695,place,village,41.2826257,-7.6983229,134.28789249518928
Constância,osm,5400341,"Constância, Santarém, Portugal",Constância,Portugal,0.525215438114801,boundary,administrative,39.4750609,-8.33819,81.66181966075753
Contenças,osm,4149563574,"Contenças, Sazes do Lorvão, Penacova, Coimbra, Portugal",Penacova,Portugal,0.36,place,hamlet,40.326868,-8.343703,14.997352300647533
Copeiro,osm,5353507810,"Copeiro, Paião, Figueira da Foz, Coimbra, Portugal",Figueira da Foz,Portugal,0.36,place,hamlet,40.0567271,-8.8090418,36.68438511330055
Cordinhã,osm,6549243,"Cordinhã, Cantanhede, Coimbra, Portugal",Cantanhede,Portugal,0.45999999999999996,boundary,administrative,40.337484,-8.5360511,17.209935356482156
Coriscada,osm,6410300,"Coriscada, Mêda, Guarda, Portugal",Mêda,Portugal,0.45999999999999996,boundary,administrative,40.866979,-7.207948,126.54162956045647
Correlos,osm,4235479896,"Correlos, Cruz, Vila Nova de Famalicão, Braga, Portugal",Vila Nova de Famalicão,Portugal,0.36,place,neighbourhood,41.4503421,-8.4932596,138.14356081475623
Corte,osm,1574707415,"Corte, São João do Monte e Mosteirinho, Tondela, Viseu, Portugal",Tondela,Portugal,0.36,place,hamlet,40.5452396,-8.2623296,40.00427949162654
Cortegaça,osm,6022117,"Cortegaça, Ovar, Aveiro, Portugal",Ovar,Portugal,0.45999999999999996,boundary,administrative,40.9416701,-8.6304376,83.3522782940941
Cortes,osm,3763166540,"Cortes, Monção, Viana do Castelo, Portugal",Monção,Portugal,0.39913902627280495,place,village,42.0701828,-8.5137925,207.00311664849647
Cortiça,osm,5329868305,"Cortiça, Friúmes e Paradela, Penacova, Coimbra, Portugal",Penacova,Portugal,0.36,place,hamlet,40.2765217,-8.1634212,23.62425205559176
Cortiçada,osm,6406856,"Cortiçada, Aguiar da Beira, Guarda, Portugal",Aguiar da Beira,Portugal,0.4002596462240582,boundary,administrative,40.7647544,-7.5420643,97.19434996152701
Cortiço,osm,5163926500,"Cortiço, Cervos, Montalegre, Vila Real, Portugal",Montalegre,Portugal,0.36,place,hamlet,41.7730983,-7.7030532,184.20721026088333
Cortiços,osm,5728026,"Cortiços, Macedo de Cavaleiros, Bragança, Portugal",Macedo de Cavaleiros,Portugal,0.44214142109901533,boundary,administrative,41.517495,-7.0218345,187.55996748646527
Cortiçô,osm,1761040293,"Cortiçô, Cortiço e Vila Chã, Fornos de Algodres, Guarda, Portugal",Cortiço e Vila Chã,Portugal,0.3633630197666373,place,village,40.663257,-7.4938472,93.90200701509747
Coruche,osm,25615636,"Coruche, Coruche, Santarém, Portugal",Coruche,Portugal,0.5360489262719089,place,town,38.958218,-8.5283498,138.97331559295714
Corujeira,osm,1366743154,"Corujeira, Guarda, Guarda, Portugal",Guarda,Portugal,0.385,place,village,40.5068927,-7.3385485,98.17854388411203
Costa,osm,4103595,"Guimarães, Braga, Portugal",Guimarães,Portugal,0.37691348680426007,boundary,administrative,41.4380063,-8.275856901986433,137.24266733564133
Coura,osm,5627851,"Coura, Paredes de Coura, Viana do Castelo, Portugal",Coura,Portugal,0.4050646030836139,boundary,administrative,41.8741814,-8.64936956393428,186.05164729471866
Couto de Cucujães,osm,6021992,"Vila de Cucujães, Oliveira de Azeméis, Aveiro, Portugal",Oliveira de Azeméis,Portugal,0.5120198789366733,boundary,administrative,40.8704631,-8.4977106,73.87759110119191
Couto de Esteves,osm,6022243,"Couto de Esteves, Sever do Vouga, Aveiro, Portugal",Sever do Vouga,Portugal,0.5935042058306903,boundary,administrative,40.75758,-8.307421,61.91355090234735
Couço,osm,6458377,"Couço, Coruche, Santarém, Portugal",Couço,Portugal,0.3950481715152184,boundary,administrative,38.9875126,-8.2868981,135.96870486958812
Covas,osm,25264985,"Terras de Bouro, Moimenta, Terras de Bouro, Braga, Portugal",Moimenta,Portugal,0.42316134077519146,place,town,41.7190293,-8.3083026,168.16094083654693
Covelo,osm,3787412431,"Covelo, Tábua, Coimbra, Portugal",Tábua,Portugal,0.385,place,village,40.309868,-8.090263,30.743653229955953
Covilhã,osm,5384331,"Covilhã, Castelo Branco, Portugal",Covilhã,Portugal,0.5907427655249622,boundary,administrative,40.2805658,-7.5043211,78.8442156420411
Covões,osm,1307581649,"Covões, Covões e Camarneira, Cantanhede, Coimbra, Portugal",Covões e Camarneira,Portugal,0.385,place,village,40.4294373,-8.6119096,29.282024573190636
Crato,osm,5397065,"Crato, Portalegre, Portugal",Crato,Portugal,0.523885190805925,boundary,administrative,39.2851221,-7.6454266,122.31901392096646
Cristelo,osm,4056695,"Cristelo, Barcelos, Braga, Portugal",Barcelos,Portugal,0.49252616625155754,boundary,administrative,41.4726712,-8.700260234594456,142.39785738871302
Cuba,osm,5403216,"Cuba, Beja, Portugal",Cuba,Portugal,0.5331613407751915,boundary,administrative,38.16521,-7.89253,231.36058913169734
Cumieira,osm,5160990548,"Cumieira, Cabeceiras de Basto, Braga, Portugal",Cabeceiras de Basto,Portugal,0.385,place,village,41.5437321,-8.0184183,152.32380699063367
"Cumieira, Vila Real",osm,4203503,"Cumieira, Santa Marta de Penaguião, Vila Real, Portugal",Cumieira,Portugal,0.5808404453228477,boundary,administrative,41.2559876,-7.7714965,128.90064675036123
Cunha Alta,osm,1506394976,"Cunha Alta, Mangualde, Viseu, Portugal",Mangualde,Portugal,0.47453211150644176,place,village,40.6017023,-7.6925869,76.11075804024166
Cunha Baixa,osm,6354635,"Cunha Baixa, Mangualde, Viseu, Portugal",Mangualde,Portugal,0.4929751691113914,boundary,administrative,40.5682474,-7.7583668,69.41795406446407
Cós,osm,2010851682,"Coz, Alcobaça, Leiria, Portugal",Alcobaça,Portugal,0.275,place,village,39.6016797,-8.9561958,81.11117522279332
Dardavaz,osm,6451760,"Dardavaz, Tondela, Viseu, Portugal",Tondela,Portugal,0.45999999999999996,boundary,administrative,40.4769231,-8.1134368,40.01060087847597
Darque,osm,257994562,"Darque, Darque, Viana do Castelo, Viana do Castelo, Portugal",Darque,Portugal,0.4510360708527612,place,town,41.683106,-8.796185,166.8165488883966
Decermilo,osm,1346817480,"Decermilo, Sátão, Viseu, Portugal",Sátão,Portugal,0.385,place,village,40.7565222,-7.6595987,89.11016011205773
Degracias,osm,430350396,"Degracias, Soure, Coimbra, Portugal",Soure,Portugal,0.385,place,village,40.0084166,-8.5208056,23.52879566407343
Dominguiso,osm,5397904,"Dominguizo, Covilhã, Castelo Branco, Portugal",Covilhã,Portugal,0.25727750335362226,boundary,administrative,40.2107398,-7.5271724,76.52058741383442
Donas,osm,1180242645,"Donas, União do Grande Fundão, Fundão, Castelo Branco, Portugal",União do Grande Fundão,Portugal,0.4099978272098044,place,village,40.1306529,-7.4750917,81.44831826747361
Donelo,osm,5165515019,"Donelo, Covas do Douro, Sabrosa, Vila Real, Portugal",Sabrosa,Portugal,0.36,place,hamlet,41.1826083,-7.6074225,128.5061476637659
Dornelas,osm,6406857,"Dornelas, Aguiar da Beira, Guarda, Portugal",Aguiar da Beira,Portugal,0.3979976529248165,boundary,administrative,40.7307059,-7.5559045,93.92174423618577
Dornes,osm,1329742402,"Dornes, Nossa Senhora do Pranto, Ferreira do Zêzere, Santarém, Portugal",Ferreira do Zêzere,Portugal,0.36,place,hamlet,39.770769,-8.2692354,50.29828639222915
Duas Igrejas,osm,5928408,"Duas Igrejas, Paredes, Porto, PT-13, Portugal",Paredes,Portugal,0.5179649565859212,boundary,administrative,41.230974,-8.3772602,113.7384819969481
Ega,osm,4081479,"Ega, Condeixa-a-Nova, Coimbra, Portugal",Condeixa-a-Nova,Portugal,0.34036154663644147,boundary,administrative,40.0964905,-8.5426873,15.8292481420043
Eiras,osm,4194889,"Eiras, São Julião de Montenegro e Cela, Chaves, Vila Real, Portugal",Chaves,Portugal,0.45999999999999996,boundary,administrative,41.70652135,-7.380124995479639,188.32722194957307
"Eiras, Coimbra",osm,209292836,"Eiras, Coimbra, Coimbra, Portugal",Coimbra,Portugal,0.49500000000000005,place,village,40.2482161,-8.415478,4.617464117651138
Eixo,osm,2467748427,"Eixo, Aveiro, Aveiro, Portugal",Aveiro,Portugal,0.41000000000000003,place,town,40.6294024,-8.5655405,48.33116338234639
Encourados,osm,3082696896,"Encourados, Barcelos, Braga, Portugal",Barcelos,Portugal,0.44100530783461567,place,village,41.5311841,-8.5335873,147.28508343405332
Entre Ambos-os-Rios,osm,5628168,"Entre Ambos-os-Rios, Ermida e Germil, Ponte da Barca, Viana do Castelo, Portugal","Entre Ambos-os-Rios, Ermida e Germil",Portugal,0.649182950422608,boundary,administrative,41.804045,-8.268536672784542,177.80549335402924
Envendos,osm,6458555,"Envendos, Mação, Santarém, Portugal",Mação,Portugal,0.3672775033536223,boundary,administrative,39.5685154,-7.8752707,85.1544976385892
Enxara do Bispo,osm,2547278654,"Enxara do Bispo, Mafra, Lisboa, Portugal",Mafra,Portugal,0.5750000000000001,place,village,38.9912042,-9.2416913,152.12405301438437
Ereira,osm,1665929577,"Ereira, Cartaxo, Santarém, Portugal",Cartaxo,Portugal,0.385,place,village,39.1794069,-8.8644701,120.17530407353249
Ericeira,osm,6522363,"Ericeira, Mafra, Lisboa, Portugal",Mafra,Portugal,0.4736248299526593,boundary,administrative,38.97039795,-9.399580512067734,160.8003947654065
Ermida,osm,1662303723,"Ermida, Sertã, Castelo Branco, Portugal",Sertã,Portugal,0.385,place,village,39.8075077,-7.9561178,59.84495023921048
Ervedal,osm,1325049571,"Ervedal, Ervedal e Vila Franca da Beira, Oliveira do Hospital, Coimbra, Portugal",Ervedal e Vila Franca da Beira,Portugal,0.385,place,village,40.4223752,-7.8896548,51.459908834756185
Ervedosa,osm,5739334,"Ervedosa, Vinhais, Bragança, Portugal",Vinhais,Portugal,0.441859350128987,boundary,administrative,41.7094559,-7.0774602,201.7690458556612
Ervedosa do Douro,osm,6446333,"Ervedosa do Douro, Viseu, Portugal",Ervedosa do Douro,Portugal,0.580666359276252,boundary,administrative,41.1655541,-7.4734152,133.4328537872367
Escalhão,osm,6384610,"Escalhão, Figueira de Castelo Rodrigo, Guarda, Portugal",Figueira de Castelo Rodrigo,Portugal,0.3815966805698038,boundary,administrative,40.9500884,-6.9248016,151.5115618226068
Escalos de Baixo,osm,469144048,"Escalos de Baixo, Escalos de Baixo e Mata, Castelo Branco, Castelo Branco, Portugal",Escalos de Baixo e Mata,Portugal,0.5750000000000001,place,village,39.8859417,-7.3971427,94.77666501779883
Escalos de Cima,osm,4698030095,"Escalos de Cima, Escalos de Cima e Lousa, Castelo Branco, Castelo Branco, Portugal",Escalos de Cima e Lousa,Portugal,0.5750000000000001,place,village,39.929845,-7.4042659,92.45073718375271
Escarigo,osm,3402072006,"Escarigo, Fundão, Castelo Branco, Portugal",Fundão,Portugal,0.385,place,village,40.2470901,-7.29073,96.72290108082277
Esgueira,osm,6021064,"Esgueira, Aveiro, Aveiro, Portugal",Aveiro,Portugal,0.42543423863277285,boundary,administrative,40.6485273,-8.6281389,51.898111494177535
Espariz,osm,2569596131,"Espariz, Tábua, Coimbra, Portugal",Tábua,Portugal,0.385,place,village,40.3102776,-8.0350815,35.162400033970904
Espinhal,osm,3088891418,"Espinhal, Águas Belas, Sabugal, Guarda, Portugal",Sabugal,Portugal,0.36,place,hamlet,40.3765515,-7.1444637,110.57350381967396
"Espinhal, Penela",osm,6553679,"Espinhal, Coimbra, Portugal",Espinhal,Portugal,0.46469861684138924,boundary,administrative,40.0135814,-8.3505419,22.464381347511903
Espinhel,osm,1125625914,"Espinhel, Águeda, Aveiro, Portugal",Águeda,Portugal,0.385,place,village,40.5682765,-8.4909913,40.448197260457306
Espinho,osm,5312120,"Espinho, Aveiro, Portugal",Espinho,Portugal,0.5734232531327048,boundary,administrative,40.9952939,-8.624463216301836,89.08804895739088
Espinhosa,osm,1198282091,"Espinhosa, São João da Pesqueira, Viseu, Portugal",São João da Pesqueira,Portugal,0.385,place,village,41.088909,-7.4810634,126.36912294421553
Esposende,osm,3302768479,"Esposende, Esposende, Braga, Portugal",Esposende,Portugal,0.5462551751261596,place,city,41.5315251,-8.7792538,150.0282286132364
Estarreja,osm,5321485,"Estarreja, Aveiro, Portugal",Estarreja,Portugal,0.5398538696592649,boundary,administrative,40.7523494,-8.5703455,61.73619271733081
Estombar,osm,4992686182,"Estombar, Saboia, Odemira, Beja, Portugal",Odemira,Portugal,0.36,place,hamlet,37.4347617,-8.5617259,308.0243574967961
Estremoz,osm,5402659,"Estremoz, Évora, Portugal",Estremoz,Portugal,0.5639727184858657,boundary,administrative,38.8432944,-7.586907,167.75713977869586
Fafe,osm,1346179416,"Fafe, Fafe, Braga, Portugal",Fafe,Portugal,0.5562144168981282,place,city,41.451406,-8.1708502,139.81150700921802
Faia,osm,3233490,"Faia, Guarda, Guarda, Portugal",Guarda,Portugal,0.4314090033148059,boundary,administrative,40.5605276,-7.3093322,102.60665138976803
Fail,osm,4325381340,"Faíl, Viseu, Viseu, Portugal",Viseu,Portugal,0.275,place,village,40.6067976,-7.9823765,58.17858688738304
Fajão,osm,5638408706,"Fajão, Pampilhosa da Serra, Coimbra, Portugal",Pampilhosa da Serra,Portugal,0.385,place,village,40.1495978,-7.923948,43.23988846019732
Fala,osm,4008618302,"Fala, São Martinho do Bispo e Ribeira de Frades, Coimbra, Coimbra, Portugal",Coimbra,Portugal,0.385,place,suburb,40.2030403,-8.4684572,3.647024937756185
Famalicão,osm,2452042571,"Vila Nova de Famalicão, Vila Nova de Famalicão, Braga, Portugal",Vila Nova de Famalicão,Portugal,0.5656240575713949,place,city,41.4065175,-8.5187481,133.38951397085253
Farminhão,osm,1740451320,"Farminhão, Viseu, Viseu, Portugal",Viseu,Portugal,0.385,place,village,40.6136207,-8.0142784,57.05951456279988
Fataunços,osm,4340954317,"Fataunços, Fataunços e Figueiredo das Donas, Vouzela, Viseu, Portugal",Fataunços e Figueiredo das Donas,Portugal,0.385,place,village,40.7255146,-8.0802739,64.57181993884501
Fatela,osm,5328550,"Fatela, Fundão, Castelo Branco, Portugal",Fundão,Portugal,0.4154395124350446,boundary,administrative,40.1596147,-7.429519,85.03081028689664
Favaios,osm,4204528,"Favaios, Vila Real, Portugal",Favaios,Portugal,0.3950481715152184,boundary,administrative,41.2674081,-7.5005228,141.30180952492375
Febres,osm,6549244,"Febres, Cantanhede, Coimbra, Portugal",Febres,Portugal,0.38664542937718926,boundary,administrative,40.4005267,-8.6297945,27.566944049308933
Feira,osm,1109502651,"Feira, Destriz e Reigoso, Oliveira de Frades, Viseu, Portugal",Oliveira de Frades,Portugal,0.36,place,hamlet,40.6809081,-8.2748351,54.118905779608156
"Feira, Aveiro",osm,5312121,"Santa Maria da Feira, Aveiro, Portugal",Santa Maria da Feira,Portugal,0.6746811008598212,boundary,administrative,40.9254179,-8.5426688,80.34000306488498
Felgar,osm,1243903946,"Felgar, Torre de Moncorvo, Bragança, Portugal",Torre de Moncorvo,Portugal,0.3852446327297393,place,village,41.2100878,-6.9579042,166.6944449002529
Felgueira,osm,4187086391,"Felgueira, Sobral, Mortágua, Viseu, Portugal",Mortágua,Portugal,0.36,place,hamlet,40.4591928,-8.1954031,34.140585958782445
Felgueiras,osm,3973097,"Margaride (Santa Eulália), Várzea, Lagares, Varziela e Moure, Felgueiras, Porto, PT-13, Portugal",Felgueiras,Portugal,0.5497404424427932,boundary,administrative,41.3647716,-8.1989321,129.94451207114477
Fermedo,osm,6020697,"Fermedo, Arouca, Aveiro, Portugal",Fermedo,Portugal,0.45999999999999996,boundary,administrative,40.969640049999995,-8.361806134272623,84.81552859164442
Fermelã,osm,263878702,"Fermelã, Estarreja, Aveiro, Portugal",Estarreja,Portugal,0.35110736422489375,place,village,40.7012642,-8.5534187,55.89281936952884
Fermentelos,osm,6017811,"Fermentelos, Águeda, Aveiro, Portugal",Águeda,Portugal,0.42796495658592126,boundary,administrative,40.5691209,-8.5258311,41.048466643557006
Ferreira,osm,5728028,"Ferreira, Macedo de Cavaleiros, Bragança, Portugal",Macedo de Cavaleiros,Portugal,0.42971103368473373,boundary,administrative,41.6364777,-6.9825567,199.91616441555988
Ferreira de Aves,osm,6412549,"Ferreira de Aves, Sátão, Viseu, Portugal",Sátão,Portugal,0.5999978272098043,boundary,administrative,40.8100575,-7.6644267,92.97628295395403
Ferreira do Alentejo,osm,5403269,"Ferreira do Alentejo, Beja, Portugal",Ferreira do Alentejo,Portugal,0.7208031717481289,boundary,administrative,38.0585086,-8.1138197,240.08981398093002
Ferreira do Zêzere,osm,5400343,"Ferreira do Zêzere, Santarém, Portugal",Ferreira do Zêzere,Portugal,0.7141089021200477,boundary,administrative,39.6934308,-8.2905545,58.23227295463155
"Ferreira, Beja",osm,5403269,"Ferreira do Alentejo, Beja, Portugal",Ferreira do Alentejo,Portugal,0.6308031717481289,boundary,administrative,38.0585086,-8.1138197,240.08981398093002
Ferreirim,osm,6354512,"Ferreirim, Lamego, Viseu, Portugal",Lamego,Portugal,0.3873340667019618,boundary,administrative,41.0458264,-7.7811537,107.90991937978352
Ferreiros,osm,3151842623,"Ferreiros, Braga, Braga, Portugal",Braga,Portugal,0.42796495658592126,place,village,41.5349991,-8.4399766,147.43403621818499
Ferreiros de Tendais,osm,6354417,"Ferreiros de Tendais, Cinfães, Viseu, Portugal",Cinfães,Portugal,0.5766454293771893,boundary,administrative,41.0473603,-8.0470246,98.62960601933834
Fervença,osm,8003598349,"Fervença, Além da Ribeira e Pedreira, Tomar, Santarém, Portugal",Tomar,Portugal,0.36,place,hamlet,39.6671765,-8.399141,60.0292333170885
Feteira,osm,7448371,"Feteira, Angra do Heroísmo, Açores, Portugal",Angra do Heroísmo,Portugal,0.447269171634054,boundary,administrative,38.655227,-27.1511743,1618.3400407885333
Figueira,osm,6354514,"Figueira, Lamego, Viseu, Portugal",Lamego,Portugal,0.3880150946188139,boundary,administrative,41.1024727,-7.7607833,114.2096093616033
Figueira da Foz,osm,5378424,"Figueira da Foz, Coimbra, Portugal",Figueira da Foz,Portugal,0.7807175115195393,boundary,administrative,40.1485808,-8.855655,37.17281879989161
Figueira de Castelo Rodrigo,osm,3905934,"Figueira de Castelo Rodrigo, Guarda, Portugal",Figueira de Castelo Rodrigo,Portugal,0.8217309888303401,boundary,administrative,40.89751,-6.96279,145.71085939341805
"Figueira, Coimbra",osm,5378424,"Figueira da Foz, Coimbra, Portugal",Figueira da Foz,Portugal,0.6907175115195392,boundary,administrative,40.1485808,-8.855655,37.17281879989161
Figueiras Podres,osm,8092983336,"Figueiras Podres de São João, Ansião, Ansião, Leiria, Portugal",Ansião,Portugal,0.45,place,hamlet,39.9399949,-8.4065942,29.740168843678763
Figueiró,osm,5913210,"Figueiró, Paços de Ferreira, Porto, PT-13, Portugal",Paços de Ferreira,Portugal,0.39066635927625193,boundary,administrative,41.3076369,-8.3451935,122.36840869021714
Figueiró da Granja,osm,6409537,"Figueiró da Granja, Fornos de Algodres, Guarda, Portugal",Fornos de Algodres,Portugal,0.5669134868042601,boundary,administrative,40.6285936,-7.4992334,91.50865344120741
Figueiró da Serra,osm,432910409,"Figueiró da Serra, Figueiró da Serra e Freixo da Serra, Gouveia, Guarda, Portugal",Figueiró da Serra e Freixo da Serra,Portugal,0.5750000000000001,place,village,40.541482,-7.4866462,87.9773696633816
Figueiró do Campo,osm,6553744,"Figueiró do Campo, Soure, Coimbra, Portugal",Soure,Portugal,0.65,boundary,administrative,40.1477718,-8.5786908,14.594278746262319
Figueiró dos Vinhos,osm,5399201,"Figueiró dos Vinhos, Leiria, Portugal",Figueiró dos Vinhos,Portugal,0.7148487957523324,boundary,administrative,39.9024537,-8.2753006,36.221628594965715
Fiscal,osm,8180646129,"Fiscal, Lousã, Lousã e Vilarinho, Lousã, Coimbra, Portugal",Lousã e Vilarinho,Portugal,0.36,place,hamlet,40.1157317,-8.2278854,19.711030024148425
Fiães,osm,6022191,"Fiães, Aveiro, Portugal",Fiães,Portugal,0.455950553181826,boundary,administrative,40.9945859,-8.5247192,87.8099667831973
Flor da Rosa,osm,5476732715,"Flor da Rosa, Lousã, Lousã e Vilarinho, Lousã, Coimbra, Portugal",Lousã e Vilarinho,Portugal,0.55,place,hamlet,40.1136169,-8.2417309,18.839953358860107
Folgorosa,osm,1226766466,"Folgorosa, São Pedro de Castelões, Vale de Cambra, Aveiro, Portugal",Vale de Cambra,Portugal,0.36,place,hamlet,40.815196,-8.392404,67.54999362253335
Folgosa,osm,5923249,"Folgosa, Maia, Porto, PT-13, Portugal",Folgosa,Portugal,0.39131173061162206,boundary,administrative,41.25886955,-8.548424576305376,117.21896564912004
Folgosinho,osm,6334825,"Folgosinho, Gouveia, Guarda, Portugal",Gouveia,Portugal,0.3859490106750474,boundary,administrative,40.51061,-7.5134418,84.51210464202575
Folhadosa,osm,1325049656,"Folhadosa, Seia, Guarda, Portugal",Seia,Portugal,0.385,place,village,40.3794829,-7.7846879,57.779286473305305
Folques,osm,6549069,"Folques, Arganil, Coimbra, Portugal",Arganil,Portugal,0.3777191505560489,boundary,administrative,40.2223938,-8.0094716,35.4964083127825
Fonte Arcada,osm,5928133,"Fonte Arcada, Penafiel, Porto, PT-13, Portugal",Penafiel,Portugal,0.5067280415833832,boundary,administrative,41.1471291,-8.3623376,104.49100865256493
Fonte Longa,osm,4300922405,"Fonte Longa, Mêda, Outeiro de Gatos e Fonte Longa, Mêda, Guarda, Portugal","Mêda, Outeiro de Gatos e Fonte Longa",Portugal,0.47500000000000003,place,village,41.0130888,-7.2332299,134.88154718508412
Fonte de Arcada,osm,1936193875,"Bairro de São Martinho (Fonte Arcada), Fonte Arcada, Escurquela e Fonte Arcada, Sernancelhe, Viseu, Portugal",Escurquela e Fonte Arcada,Portugal,0.55,place,quarter,40.9683047,-7.5216087,114.02054108562898
Fontelas,osm,1975702378,"Fontelas, Alcaravela, Sardoal, Santarém, Portugal",Sardoal,Portugal,0.36,place,hamlet,39.5573492,-8.1066456,77.17557498004587
Fontes,osm,6457243,"Fontes, Abrantes, Santarém, Portugal",Abrantes,Portugal,0.39131173061162206,boundary,administrative,39.6030442,-8.2253473,69.26462298941848
"Fontes, Vila Real",osm,4203504,"Fontes, Santa Marta de Penaguião, Vila Real, Portugal",Fontes,Portugal,0.5792995550804914,boundary,administrative,41.240367750000004,-7.850468312517476,124.58665388630703
Fontão,osm,5713284,"Fontão, Ponte de Lima, Viana do Castelo, Portugal",Fontão,Portugal,0.45999999999999996,boundary,administrative,41.74430065,-8.65821573217448,171.7908442136231
Formoselha,osm,3374938424,"Formoselha, Santo Varão, Montemor-o-Velho, Coimbra, Portugal",Montemor-o-Velho,Portugal,0.36,place,hamlet,40.17886,-8.6156045,16.45361399885406
Fornelo,osm,1109608731,"Fornelo, Arcozelo das Maias, Oliveira de Frades, São João da Serra, Viseu, Portugal",Oliveira de Frades,Portugal,0.36,place,hamlet,40.7554969,-8.2501872,62.65953583640518
Fornelos,osm,4056781,"Fornelos, Barcelos, Braga, Portugal",Barcelos,Portugal,0.48018595670475683,boundary,administrative,41.5156072,-8.6759376,146.79568075680294
Forno Telheiro,osm,6371561,"Forno Telheiro, Celorico da Beira, Guarda, Portugal",Celorico da Beira,Portugal,0.47381125651268036,boundary,administrative,40.6742383,-7.3983252,101.43473207199185
Fornos,osm,6022192,"Fornos, Santa Maria da Feira, Aveiro, Portugal",Santa Maria da Feira,Portugal,0.4398478578672752,boundary,administrative,40.9161135,-8.5325022,79.21211086924528
Fornos de Algodres,osm,5331733,"Fornos de Algodres, Guarda, Portugal",Fornos de Algodres,Portugal,0.7184899845971946,boundary,administrative,40.6579679,-7.488088682276229,94.00264616432216
Fornos de Maceira Dão,osm,6354637,"Fornos de Maceira Dão, Mangualde, Viseu, Portugal",Mangualde,Portugal,0.6902596462240582,boundary,administrative,40.6086698,-7.8185976,68.14284639516224
Foz de Arouce,osm,1363833133,"Foz de Arouce, Foz de Arouce e Casal de Ermio, Lousã, Coimbra, Portugal",Foz de Arouce e Casal de Ermio,Portugal,0.5423278476590364,place,village,40.158653,-8.278448,13.683719665454364
Fratel,osm,5513789,"Fratel, Vila Velha de Ródão, Castelo Branco, Portugal",Vila Velha de Ródão,Portugal,0.45999999999999996,boundary,administrative,39.6277241,-7.7455834,86.75818080903889
Frazoeira,osm,5527659137,"Frazoeira, Ferreira do Zêzere, Santarém, Portugal",Ferreira do Zêzere,Portugal,0.385,place,village,39.7496647,-8.2990981,51.969861358497866
Freamunde,osm,5913211,"Freamunde, Paços de Ferreira, Porto, PT-13, Portugal",Freamunde,Portugal,0.4552720245005685,boundary,administrative,41.2885918,-8.3401591,120.28154709686164
Frechas,osm,5735860,"Frechas, Mirandela, Bragança, Portugal",Mirandela,Portugal,0.43467073789699096,boundary,administrative,41.4113625,-7.1643506,170.89807925645744
Freineda,osm,2810297,"Freineda, Almeida, Guarda, Portugal",Almeida,Portugal,0.3823437491030711,boundary,administrative,40.5843071,-6.8899911,136.9539753057431
Freixeda,osm,1464891545,"Freixeda, Mirandela, Bragança, Portugal",Mirandela,Portugal,0.385,place,village,41.4176022,-7.1079347,174.43266346100435
Freixeda do Torrão,osm,439600313,"Freixeda do Torrão, Figueira de Castelo Rodrigo, Guarda, Portugal",Figueira de Castelo Rodrigo,Portugal,0.5750000000000001,place,village,40.8895348,-7.0325153,140.24785362591246
Freixedas,osm,6391633,"Freixedas, Pinhel, Guarda, Portugal",Pinhel,Portugal,0.39913902627280495,boundary,administrative,40.6938017,-7.1627861,119.99808902074768
Freixedo,osm,1374461746,"Freixedo, Grijó de Parada, Bragança, Bragança, Portugal",Bragança,Portugal,0.36,place,hamlet,41.7375783,-6.7014321,223.4765646928552
Freixial,osm,6770066698,"Freixial, Arrabal, Leiria, Leiria, Portugal",Leiria,Portugal,0.36,place,hamlet,39.7123708,-8.7183652,60.37742516121423
Freixianda,osm,6461821,"Freixianda, Ribeira do Fárrio e Formigais, Ourém, Santarém, Portugal",Ourém,Portugal,0.45999999999999996,boundary,administrative,39.75593415,-8.47912649361691,50.33556904229584
Freixinho,osm,1359810349,"Freixinho, Penso e Freixinho, Sernancelhe, Viseu, Portugal",Penso e Freixinho,Portugal,0.385,place,village,40.9377108,-7.5293932,111.08674593553656
Freixo,osm,3873031335,"Freixo, Ponte de Lima, Viana do Castelo, Portugal",Ponte de Lima,Portugal,0.385,place,village,41.6538756,-8.5857488,161.19477125292536
Freixo da Serra,osm,2691327659,"Freixo da Serra, Figueiró da Serra e Freixo da Serra, Gouveia, Guarda, Portugal",Figueiró da Serra e Freixo da Serra,Portugal,0.5750000000000001,place,village,40.5305599,-7.5038046,86.15182308764429
Freixo de Cima,osm,3929239717,"Freixo de Cima, Freixo de Cima e de Baixo, Amarante, Porto, PT-13, Portugal",Freixo de Cima e de Baixo,Portugal,0.5618449554900855,place,village,41.3116144,-8.1353228,125.052019381971
Freixo de Espada à Cinta,osm,3363909,"Freixo de Espada à Cinta, Bragança, Portugal",Freixo de Espada à Cinta,Portugal,0.918766673723503,boundary,administrative,41.0913764,-6.8078692,168.41815705903534
Freixo de Espada á Cinta,osm,3363909,"Freixo de Espada à Cinta, Bragança, Portugal",Freixo de Espada à Cinta,Portugal,0.8187666737235029,boundary,administrative,41.0913764,-6.8078692,168.41815705903534
Freixo de Numão,osm,6393411,"Freixo de Numão, Vila Nova de Foz Coa, Guarda, Portugal",Freixo de Numão,Portugal,0.6027787078968705,boundary,administrative,41.0669119,-7.221502,139.61098154388466
Frielas,osm,267932725,"Frielas, Loures, Lisboa, Portugal",Loures,Portugal,0.41232385417649164,place,village,38.8253059,-9.1440506,165.40562506874156
Fronteira,osm,5397424,"Fronteira, Portalegre, Portugal",Fronteira,Portugal,0.519311991790874,boundary,administrative,39.0558091,-7.6478657,144.25896081527696
Funchal,osm,8421413,"Funchal, Madeira, Portugal",Funchal,Portugal,0.6507914914932806,boundary,administrative,32.6496497,-16.9086783,1131.1024485741154
"Funchal, Madeira",osm,8421413,"Funchal, Madeira, Portugal",Funchal,Portugal,0.7607914914932807,boundary,administrative,32.6496497,-16.9086783,1131.1024485741154
Fundão,osm,5240988,"Fundão, Castelo Branco, Portugal",Fundão,Portugal,0.5390997697181233,boundary,administrative,40.12503595,-7.511101717217624,78.47187635953756
Fão,osm,3133927444,"Fão, Braga, Portugal",Fão,Portugal,0.4095218989809717,place,town,41.5123027,-8.7729003,147.8303704263556
Gafete,osm,6440205,"Gáfete, Crato, Portalegre, Portugal",Crato,Portugal,0.2591452947568411,boundary,administrative,39.410421,-7.6850538,108.88659835923202
Galafura,osm,5163752821,"Galafura, Peso da Régua, Vila Real, Portugal",Peso da Régua,Portugal,0.3663219431370922,place,village,41.1858647,-7.6859343,125.37126697346211
Galizes,osm,1325119578,"Galizes, Nogueira do Cravo, Oliveira do Hospital, Coimbra, Portugal",Oliveira do Hospital,Portugal,0.17771011133071196,place,hamlet,40.3194734,-7.8942237,46.915551702284574
Galveias,osm,6440363,"Galveias, Ponte de Sor, Portalegre, Portugal",Ponte de Sor,Portugal,0.3777191505560489,boundary,administrative,39.1588345,-7.9973977,122.09088737268169
Gandra,osm,5928409,"Gandra, Paredes, Porto, PT-13, Portugal",Gandra,Portugal,0.45999999999999996,boundary,administrative,41.1963232,-8.4359653,109.8188799872797
Gavião,osm,5397066,"Gavião, Portalegre, Portugal",Gavião,Portugal,0.5231335668641502,boundary,administrative,39.44956775,-7.913052599788992,94.91400953362295
Gebelim,osm,1814695633,"Gebelim, Alfândega da Fé, Bragança, Portugal",Alfândega da Fé,Portugal,0.37271918857886255,place,village,41.4421268,-6.9306362,186.30820173540545
Genova,osm,44875,"Genova, Genova, IT-GE, Liguria, Italia",Genova,Italia,0.7921779665930816,boundary,administrative,44.4494579,8.892814905412301,1499.8016423339411
Geraz do Lima,osm,3874021569,"Geraz do Lima (Santa Leocádia), Viana do Castelo, Viana do Castelo, Portugal",Viana do Castelo,Portugal,0.5750000000000001,place,village,41.7030034,-8.6674105,167.32760493405345
Gestaçô,osm,5832260,"Gestaçô, Baião, Porto, PT-13, Portugal",Baião,Portugal,0.45999999999999996,boundary,administrative,41.1677523,-7.9285981,114.63159539882598
Gesteira,osm,4008387189,"Gesteira, Soure, Coimbra, Portugal",Soure,Portugal,0.385,place,village,40.0838238,-8.6561276,23.934839672948687
Gestosa,osm,5318452155,"Gestosa, Santa Comba Dão e Couto de Mosteiro, Santa Comba Dão, Viseu, Portugal",Santa Comba Dão,Portugal,0.36,place,neighbourhood,40.4176865,-8.1236065,34.725405136761836
Girabolhos,osm,6361449,"Girabolhos, Seia, Guarda, Portugal",Seia,Portugal,0.45999999999999996,boundary,administrative,40.5098594,-7.7374096,67.44776520656416
Godim,osm,3191946112,"Godim, Peso da Régua, Vila Real, Portugal",Peso da Régua,Portugal,0.3653513341109713,place,village,41.1714261,-7.8026505,119.3146756273526
Goes,osm,5198552596,"Goes, Sampriz, Ponte da Barca, Viana do Castelo, Portugal",Sampriz,Portugal,0.36,place,hamlet,41.7832491,-8.383298,175.03851035330518
Golegã,osm,5400344,"Golegã, Santarém, Portugal",Golegã,Portugal,0.5325802033167898,boundary,administrative,39.4017959,-8.4867361,89.60044517324194
Gondufe,osm,5713288,"Gondufe, Ponte de Lima, Viana do Castelo, Portugal",Gondufe,Portugal,0.44435268605317946,boundary,administrative,41.759117599999996,-8.51415080416022,172.4809392340272
Gouveia,osm,5332864,"Gouveia, Guarda, Portugal",Gouveia,Portugal,0.5375633120263368,boundary,administrative,40.49773625,-7.595845584129108,77.54251544018379
Gouvinhas,osm,4203941,"Gouvinhas, Sabrosa, Vila Real, Portugal",Sabrosa,Portugal,0.3979976529248165,boundary,administrative,41.1834941,-7.6340419,127.39247169838181
Gradil,osm,283926753,"Gradil, Mafra, Lisboa, Portugal",Mafra,Portugal,0.385,place,village,38.9818578,-9.2805257,154.6032832391387
Gradiz,osm,1859273761,"Gradiz, Aguiar da Beira, Guarda, Portugal",Aguiar da Beira,Portugal,0.385,place,village,40.8592374,-7.5282442,104.99695857283224
Gramaços,osm,8342981734,"Gramaços, Oliveira do Hospital, Oliveira do Hospital, Coimbra, Portugal",Oliveira do Hospital,Portugal,0.36,place,hamlet,40.3466296,-7.8562249,50.86394433038703
Granja,osm,6372240,"Granja, Trancoso, Guarda, Portugal",Trancoso,Portugal,0.45999999999999996,boundary,administrative,40.7485317,-7.2053673,119.67946209518242
Granja Nova,osm,4304802402,"Granja Nova, Granja Nova e Vila Chã da Beira, Tarouca, Viseu, Portugal",Granja Nova e Vila Chã da Beira,Portugal,0.47500000000000003,place,village,41.0309426,-7.7248238,109.0093028421883
Granja do Ulmeiro,osm,6553745,"Granja do Ulmeiro, Soure, Coimbra, Portugal",Soure,Portugal,0.65,boundary,administrative,40.1612544,-8.6328404,18.345810337441993
Granjal,osm,6427345,"Granjal, Sernancelhe, Viseu, Portugal",Sernancelhe,Portugal,0.40081240687427555,boundary,administrative,40.8880426,-7.5303027,107.09192902111164
Grijó,osm,5728029,"Grijó, Macedo de Cavaleiros, Bragança, Portugal",Macedo de Cavaleiros,Portugal,0.45999999999999996,boundary,administrative,41.5027019,-6.9761157,188.76992019882513
Grândola,osm,5401848,"Grândola, Setúbal, Portugal",Grândola,Portugal,0.5378021975942903,boundary,administrative,38.1761212,-8.5680717,225.8469677611123
Guarda,osm,2403607,"Guarda, Guarda, Portugal",Guarda,Portugal,0.5387485870051533,boundary,administrative,40.5378408,-7.2662964,105.10241176856951
Guarita,osm,5318452029,"Guarita, Silvares, São João de Areias, Santa Comba Dão, Viseu, Portugal",Santa Comba Dão,Portugal,0.36,place,neighbourhood,40.3985047,-8.0849183,35.931147028243004
Guilheiro,osm,3981774,"Guilheiro, Trancoso, Guarda, Portugal",Trancoso,Portugal,0.4276097256349535,boundary,administrative,40.8986863,-7.4147245,115.01730712359132
Guimarâes,osm,3924938,"Guimarães, Braga, Portugal",Guimarães,Portugal,0.5513303452403762,boundary,administrative,41.4417677,-8.2955712,137.51557778578896
Guimarães,osm,3924938,"Guimarães, Braga, Portugal",Guimarães,Portugal,0.6613303452403761,boundary,administrative,41.4417677,-8.2955712,137.51557778578896
Guiães,osm,4202133,"Guiães, Vila Real, Vila Real, Portugal",Vila Real,Portugal,0.43955506682079726,boundary,administrative,41.2091139,-7.6612829,128.64374284796173
Góis,osm,5395070,"Góis, Coimbra, Portugal",Góis,Portugal,0.5244059263063586,boundary,administrative,40.1546195,-8.1099454,27.54911223658618
Horta,osm,8010422,"Horta, Horta, Açores, Portugal",Horta,Portugal,0.5676058821502381,place,hamlet,38.5368032,-28.630109,1747.0364470460604
"Horta, Açores",osm,8010422,"Horta, Horta, Açores, Portugal",Horta,Portugal,0.6776058821502381,place,hamlet,38.5368032,-28.630109,1747.0364470460604
Idanha a Nova,osm,5395738,"Idanha-a-Nova, Castelo Branco, Portugal",Idanha-a-Nova,Portugal,0.7312222677613642,boundary,administrative,39.87697385,-7.114231633979989,117.80636889621881
Idanha-a-Nova,osm,5395738,"Idanha-a-Nova, Castelo Branco, Portugal",Idanha-a-Nova,Portugal,0.7312222677613642,boundary,administrative,39.87697385,-7.114231633979989,117.80636889621881
Ilha,osm,3380501782,"Ilha, Pombal, Leiria, Portugal",Pombal,Portugal,0.385,place,village,39.9137002,-8.7654465,43.6161308028881
Ilha da Graciosa,osm,4822053,"Ilha Graciosa, Luz, Santa Cruz da Graciosa, Açores, Portugal",Santa Cruz da Graciosa,Portugal,0.7190421262462382,place,island,39.05289005,-28.012979224740974,1683.0448255776212
"Ilha da Graciosa, Açores",osm,4822053,"Ilha Graciosa, Luz, Santa Cruz da Graciosa, Açores, Portugal",Santa Cruz da Graciosa,Portugal,0.8290421262462382,place,island,39.05289005,-28.012979224740974,1683.0448255776212
Ilha de Santa Maria,osm,4800957,"Ilha de Santa Maria, Almagreira, Vila do Porto, Açores, Portugal",Vila do Porto,Portugal,0.8430391246300328,place,island,36.9725989,-25.10263361635285,1494.1596386438025
"Ilha de Santa Maria, Açores",osm,4800957,"Ilha de Santa Maria, Almagreira, Vila do Porto, Açores, Portugal",Vila do Porto,Portugal,0.9530391246300329,place,island,36.9725989,-25.10263361635285,1494.1596386438025
Ilha do Fogo,osm,29198860,"Ilha do Fogo, CENTRO, Petrolina, Petrolina, Região Geográfica Imediata de Petrolina, Região Administrativa Integrada de Desenvolvimento do Polo Petrolina e Juazeiro, Região Geográfica Intermediária de Petrolina, Pernambuco, Região Nordeste, Brasil",Petrolina,Brasil,0.55,place,islet,-9.40593195,-40.50427585531307,6408.726733856963
Ilha do Pico,osm,5326371530,"Ilha do Pico, Santa Maria de Sardoura, Castelo de Paiva, Aveiro, Portugal",Santa Maria de Sardoura,Portugal,0.55,place,hamlet,41.0551237,-8.2912733,94.82210502261619
Izeda,osm,1482100473,"Izeda, Bragança, Bragança, Portugal",Bragança,Portugal,0.44157598227637695,place,town,41.5674474,-6.721123,208.4522956658625
"Izeda, Bragança",osm,1482100473,"Izeda, Bragança, Bragança, Portugal",Bragança,Portugal,0.5515759822763769,place,town,41.5674474,-6.721123,208.4522956658625
Janarde,osm,1222055599,"Janarde, Arouca, Aveiro, Portugal",Arouca,Portugal,0.385,place,village,40.9258493,-8.1498928,83.13394123017513
Janeiro de Cima,osm,1685937857,"Janeiro de Cima, Janeiro de Cima e Bogas de Baixo, Fundão, Castelo Branco, Portugal",Janeiro de Cima e Bogas de Baixo,Portugal,0.6246707378969909,place,village,40.0673903,-7.7996601,55.59686452657975
Joane,osm,3737315,"Joane, Vila Nova de Famalicão, Braga, Portugal",Joane,Portugal,0.4701516632613276,boundary,administrative,41.4395446,-8.4171938,136.82985378248404
Juncal,osm,6548203,"Juncal, Leiria, Portugal",Juncal,Portugal,0.40402874005523814,boundary,administrative,39.6027438,-8.9019782,78.51258699940146
